{
"type": "FeatureCollection",
"crs": { "type": "name", "properties": { "name": "urn:ogc:def:crs:OGC:1.3:CRS84" } },
"features": [
{ "type": "Feature", "properties": { "name": "Délifrance", "type": "cafe", "city": "Tokyo", "cafe_cat_1": "Independent", "id_new": 412 }, "geometry": { "type": "Point", "coordinates": [ 139.7123995, 35.6648344 ] } },
{ "type": "Feature", "properties": { "name": "Cafe Madu", "type": "cafe", "city": "Tokyo", "cafe_cat_1": "Independent", "id_new": 882 }, "geometry": { "type": "Point", "coordinates": [ 139.7122143, 35.6627194 ] } },
{ "type": "Feature", "properties": { "name": "スターバックス", "type": "cafe", "city": "Tokyo", "cafe_cat_1": "Independent", "id_new": 883 }, "geometry": { "type": "Point", "coordinates": [ 139.711130700000012, 35.6627281 ] } },
{ "type": "Feature", "properties": { "name": "ドトールコーヒーショップ", "type": "cafe", "city": "Tokyo", "cafe_cat_1": "Chain", "id_new": 884 }, "geometry": { "type": "Point", "coordinates": [ 139.7111789, 35.6633906 ] } },
{ "type": "Feature", "properties": { "name": "Nomu", "type": "cafe", "city": "Tokyo", "cafe_cat_1": "Independent", "id_new": 885 }, "geometry": { "type": "Point", "coordinates": [ 139.7128505, 35.6630779 ] } },
{ "type": "Feature", "properties": { "name": "ファーイーストカフェ", "type": "cafe", "city": "Tokyo", "cafe_cat_1": "Community/Old-fashioned", "id_new": 886 }, "geometry": { "type": "Point", "coordinates": [ 139.7106425, 35.6627673 ] } },
{ "type": "Feature", "properties": { "name": "蔦珈琲店", "type": "cafe", "city": "Tokyo", "cafe_cat_1": "Community/Old-fashioned", "id_new": 888 }, "geometry": { "type": "Point", "coordinates": [ 139.7115451, 35.6617987 ] } },
{ "type": "Feature", "properties": { "name": "スターバックス", "type": "cafe", "city": "Tokyo", "cafe_cat_1": "Independent", "id_new": 1158 }, "geometry": { "type": "Point", "coordinates": [ 139.717390099999989, 35.6700579 ] } },
{ "type": "Feature", "properties": { "name": "スターバックス", "type": "cafe", "city": "Tokyo", "cafe_cat_1": "Independent", "id_new": 1259 }, "geometry": { "type": "Point", "coordinates": [ 139.711777500000011, 35.6647363 ] } },
{ "type": "Feature", "properties": { "name": "ドトールコーヒーショップ", "type": "cafe", "city": "Tokyo", "cafe_cat_1": "Chain", "id_new": 1283 }, "geometry": { "type": "Point", "coordinates": [ 139.7170021, 35.6705144 ] } },
{ "type": "Feature", "properties": { "name": "Summerbird", "type": "cafe", "city": "Tokyo", "cafe_cat_1": "Independent", "id_new": 1284 }, "geometry": { "type": "Point", "coordinates": [ 139.713094399999989, 35.6631691 ] } },
{ "type": "Feature", "properties": { "name": "Lemon House Café", "type": "cafe", "city": "Tokyo", "cafe_cat_1": "Independent", "id_new": 1285 }, "geometry": { "type": "Point", "coordinates": [ 139.7161055, 35.6713109 ] } },
{ "type": "Feature", "properties": { "name": "Cafe & Bar FAB", "type": "cafe", "city": "Tokyo", "cafe_cat_1": "Independent", "id_new": 1286 }, "geometry": { "type": "Point", "coordinates": [ 139.7166525, 35.6708291 ] } },
{ "type": "Feature", "properties": { "name": "Gramercy Coffee", "type": "cafe", "city": "Tokyo", "cafe_cat_1": "Independent", "id_new": 1293 }, "geometry": { "type": "Point", "coordinates": [ 139.716523200000012, 35.666951 ] } },
{ "type": "Feature", "properties": { "name": "蕎麦カフェ 伍", "type": "cafe", "city": "Tokyo", "cafe_cat_1": "Community/Old-fashioned", "id_new": 1300 }, "geometry": { "type": "Point", "coordinates": [ 139.717800399999987, 35.6682408 ] } },
{ "type": "Feature", "properties": { "name": "Flaps Cafe", "type": "cafe", "city": "Tokyo", "cafe_cat_1": "Independent", "id_new": 1301 }, "geometry": { "type": "Point", "coordinates": [ 139.7172521, 35.667932 ] } },
{ "type": "Feature", "properties": { "name": "Flambeau", "type": "cafe", "city": "Tokyo", "cafe_cat_1": "Independent", "id_new": 1311 }, "geometry": { "type": "Point", "coordinates": [ 139.7147702, 35.6707191 ] } },
{ "type": "Feature", "properties": { "name": "風花", "type": "cafe", "city": "Tokyo", "cafe_cat_1": "Independent", "id_new": 1314 }, "geometry": { "type": "Point", "coordinates": [ 139.7152295, 35.6662444 ] } },
{ "type": "Feature", "properties": { "name": "Nid Cafe", "type": "cafe", "city": "Tokyo", "cafe_cat_1": "Independent", "id_new": 1315 }, "geometry": { "type": "Point", "coordinates": [ 139.7135314, 35.6658694 ] } },
{ "type": "Feature", "properties": { "name": "Le café BERTHOLLET", "type": "cafe", "city": "Tokyo", "cafe_cat_1": "Independent", "id_new": 1318 }, "geometry": { "type": "Point", "coordinates": [ 139.71310170000001, 35.6664538 ] } },
{ "type": "Feature", "properties": { "name": "Indigo", "type": "cafe", "city": "Tokyo", "cafe_cat_1": "Independent", "id_new": 1323 }, "geometry": { "type": "Point", "coordinates": [ 139.719759, 35.6708777 ] } },
{ "type": "Feature", "properties": { "name": "Chocolat Chic", "type": "cafe", "city": "Tokyo", "cafe_cat_1": "Independent", "id_new": 1324 }, "geometry": { "type": "Point", "coordinates": [ 139.720195, 35.6688104 ] } },
{ "type": "Feature", "properties": { "name": "Spiral Café", "type": "cafe", "city": "Tokyo", "cafe_cat_1": "Independent", "id_new": 1328 }, "geometry": { "type": "Point", "coordinates": [ 139.7117268, 35.6635501 ] } },
{ "type": "Feature", "properties": { "name": "Pier's Cafe", "type": "cafe", "city": "Tokyo", "cafe_cat_1": "Independent", "id_new": 1329 }, "geometry": { "type": "Point", "coordinates": [ 139.71214, 35.6641254 ] } },
{ "type": "Feature", "properties": { "name": "Royal Garden Cafe", "type": "cafe", "city": "Tokyo", "cafe_cat_1": "Independent", "id_new": 1331 }, "geometry": { "type": "Point", "coordinates": [ 139.720465, 35.6722472 ] } },
{ "type": "Feature", "properties": { "name": "Eight Coffee", "type": "cafe", "city": "Tokyo", "cafe_cat_1": "Independent", "id_new": 1332 }, "geometry": { "type": "Point", "coordinates": [ 139.721953, 35.67137 ] } },
{ "type": "Feature", "properties": { "name": "Goblin Park", "type": "cafe", "city": "Tokyo", "cafe_cat_1": "Independent", "id_new": 1333 }, "geometry": { "type": "Point", "coordinates": [ 139.717781699999989, 35.667648 ] } },
{ "type": "Feature", "properties": { "name": "Kawashima", "type": "cafe", "city": "Tokyo", "cafe_cat_1": "Independent", "id_new": 1334 }, "geometry": { "type": "Point", "coordinates": [ 139.7169774, 35.6706627 ] } },
{ "type": "Feature", "properties": { "name": "Le Patisser Takagi", "type": "cafe", "city": "Tokyo", "cafe_cat_1": "Independent", "id_new": 1338 }, "geometry": { "type": "Point", "coordinates": [ 139.7167466, 35.6691721 ] } },
{ "type": "Feature", "properties": { "name": "Little Pool Coffee Kaikaina", "type": "cafe", "city": "Tokyo", "cafe_cat_1": "Independent", "id_new": 1358 }, "geometry": { "type": "Point", "coordinates": [ 139.715295700000013, 35.6663568 ] } },
{ "type": "Feature", "properties": { "name": "Pure Café", "type": "cafe", "city": "Tokyo", "cafe_cat_1": "Independent", "id_new": 1365 }, "geometry": { "type": "Point", "coordinates": [ 139.7127626, 35.6634509 ] } },
{ "type": "Feature", "properties": { "name": "Cafe Icho", "type": "cafe", "city": "Tokyo", "cafe_cat_1": "Independent", "id_new": 1366 }, "geometry": { "type": "Point", "coordinates": [ 139.713291, 35.6635072 ] } },
{ "type": "Feature", "properties": { "name": "上島珈琲店", "type": "cafe", "city": "Tokyo", "cafe_cat_1": "Chain", "id_new": 1391 }, "geometry": { "type": "Point", "coordinates": [ 139.7133019, 35.6664047 ] } },
{ "type": "Feature", "properties": { "name": "珈琲舎 表参道", "type": "cafe", "city": "Tokyo", "cafe_cat_1": "Community/Old-fashioned", "id_new": 1430 }, "geometry": { "type": "Point", "coordinates": [ 139.7113553, 35.663395 ] } },
{ "type": "Feature", "properties": { "name": "PRONTO", "type": "cafe", "city": "Tokyo", "cafe_cat_1": "Independent", "id_new": 1431 }, "geometry": { "type": "Point", "coordinates": [ 139.7105195, 35.6634014 ] } },
{ "type": "Feature", "properties": { "name": "Bacchus", "type": "cafe", "city": "Tokyo", "cafe_cat_1": "Independent", "id_new": 1436 }, "geometry": { "type": "Point", "coordinates": [ 139.71011, 35.665095 ] } },
{ "type": "Feature", "properties": { "name": "Café un rêve", "type": "cafe", "city": "Tokyo", "cafe_cat_1": "Independent", "id_new": 1463 }, "geometry": { "type": "Point", "coordinates": [ 139.716093300000011, 35.6703073 ] } },
{ "type": "Feature", "properties": { "name": "カフェクルー", "type": "cafe", "city": "Tokyo", "cafe_cat_1": "Community/Old-fashioned", "id_new": 1471 }, "geometry": { "type": "Point", "coordinates": [ 139.723866500000014, 35.6716436 ] } },
{ "type": "Feature", "properties": { "name": "Cafe Kitsune", "type": "cafe", "city": "Tokyo", "cafe_cat_1": "Independent", "id_new": 1482 }, "geometry": { "type": "Point", "coordinates": [ 139.715312399999988, 35.6647755 ] } },
{ "type": "Feature", "properties": { "name": "ドトールコーヒーショップ", "type": "cafe", "city": "Tokyo", "cafe_cat_1": "Chain", "id_new": 1752 }, "geometry": { "type": "Point", "coordinates": [ 139.723516499999988, 35.6730977 ] } },
{ "type": "Feature", "properties": { "name": "ドトールコーヒーショップ", "type": "cafe", "city": "Tokyo", "cafe_cat_1": "Chain", "id_new": 1757 }, "geometry": { "type": "Point", "coordinates": [ 139.724705, 35.6726351 ] } },
{ "type": "Feature", "properties": { "name": "カフェ・ベローチェ", "type": "cafe", "city": "Tokyo", "cafe_cat_1": "Chain", "id_new": 1973 }, "geometry": { "type": "Point", "coordinates": [ 139.7170534, 35.6714791 ] } },
{ "type": "Feature", "properties": { "name": "Aoyama Flower Market (青山フラワーマーケット）", "type": "cafe", "city": "Tokyo", "cafe_cat_1": "Independent", "id_new": 2136 }, "geometry": { "type": "Point", "coordinates": [ 139.71285, 35.6647834 ] } },
{ "type": "Feature", "properties": { "name": "GLOCAL CAFE", "type": "cafe", "city": "Tokyo", "cafe_cat_1": "Independent", "id_new": 2182 }, "geometry": { "type": "Point", "coordinates": [ 139.71455180000001, 35.6720118 ] } },
{ "type": "Feature", "properties": { "name": "Link Cafe Aoyama", "type": "cafe", "city": "Tokyo", "cafe_cat_1": "Independent", "id_new": 2294 }, "geometry": { "type": "Point", "coordinates": [ 139.7171534, 35.6678813 ] } },
{ "type": "Feature", "properties": { "name": "Citron", "type": "cafe", "city": "Tokyo", "cafe_cat_1": "Independent", "id_new": 2509 }, "geometry": { "type": "Point", "coordinates": [ 139.7162917, 35.6690129 ] } },
{ "type": "Feature", "properties": { "name": "Anniversaire café", "type": "cafe", "city": "Tokyo", "cafe_cat_1": "Independent", "id_new": 2510 }, "geometry": { "type": "Point", "coordinates": [ 139.7113402, 35.6659987 ] } },
{ "type": "Feature", "properties": { "name": "Q-pot cafe", "type": "cafe", "city": "Tokyo", "cafe_cat_1": "Independent", "id_new": 2512 }, "geometry": { "type": "Point", "coordinates": [ 139.7105948, 35.6645878 ] } },
{ "type": "Feature", "properties": { "name": null, "type": "cafe", "city": "Tokyo", "cafe_cat_1": "Independent", "id_new": 2582 }, "geometry": { "type": "Point", "coordinates": [ 139.7107556, 35.6657015 ] } },
{ "type": "Feature", "properties": { "name": "Blenz Coffee", "type": "cafe", "city": "Tokyo", "cafe_cat_1": "Independent", "id_new": 2585 }, "geometry": { "type": "Point", "coordinates": [ 139.7102796, 35.6632097 ] } },
{ "type": "Feature", "properties": { "name": "タリーズコーヒー", "type": "cafe", "city": "Tokyo", "cafe_cat_1": "Chain", "id_new": 2586 }, "geometry": { "type": "Point", "coordinates": [ 139.725444399999986, 35.6721859 ] } },
{ "type": "Feature", "properties": { "name": "ドトールコーヒーショップ", "type": "cafe", "city": "Tokyo", "cafe_cat_1": "Chain", "id_new": 2719 }, "geometry": { "type": "Point", "coordinates": [ 139.7156544, 35.6675984 ] } },
{ "type": "Feature", "properties": { "name": "Rituel", "type": "cafe", "city": "Tokyo", "cafe_cat_1": "Independent", "id_new": 2808 }, "geometry": { "type": "Point", "coordinates": [ 139.7112003, 35.6643725 ] } },
{ "type": "Feature", "properties": { "name": "Granny Smith", "type": "cafe", "city": "Tokyo", "cafe_cat_1": "Independent", "id_new": 2810 }, "geometry": { "type": "Point", "coordinates": [ 139.7121716, 35.6624401 ] } },
{ "type": "Feature", "properties": { "name": "Torsys café • An Stand", "type": "cafe", "city": "Tokyo", "cafe_cat_1": "Independent", "id_new": 2811 }, "geometry": { "type": "Point", "coordinates": [ 139.709805, 35.6637153 ] } },
{ "type": "Feature", "properties": { "name": "bamboo", "type": "cafe", "city": "Tokyo", "cafe_cat_1": "Independent", "id_new": 2904 }, "geometry": { "type": "Point", "coordinates": [ 139.7126763, 35.6658045 ] } },
{ "type": "Feature", "properties": { "name": "Blue Bottle Coffee", "type": "cafe", "city": "Tokyo", "cafe_cat_1": "Independent", "id_new": 2911 }, "geometry": { "type": "Point", "coordinates": [ 139.713845600000013, 35.6652699 ] } },
{ "type": "Feature", "properties": { "name": "choupette", "type": "cafe", "city": "Tokyo", "cafe_cat_1": "Independent", "id_new": 3162 }, "geometry": { "type": "Point", "coordinates": [ 139.7136754, 35.6652789 ] } },
{ "type": "Feature", "properties": { "name": "Number A", "type": "cafe", "city": "Tokyo", "cafe_cat_1": "Independent", "id_new": 3265 }, "geometry": { "type": "Point", "coordinates": [ 139.71012970000001, 35.6636692 ] } },
{ "type": "Feature", "properties": { "name": "Maruyama Coffee", "type": "cafe", "city": "Tokyo", "cafe_cat_1": "Independent", "id_new": 3308 }, "geometry": { "type": "Point", "coordinates": [ 139.7142724, 35.665738 ] } },
{ "type": "Feature", "properties": { "name": "KOMENUCAFÉ", "type": "cafe", "city": "Tokyo", "cafe_cat_1": "Independent", "id_new": 3477 }, "geometry": { "type": "Point", "coordinates": [ 139.714352100000013, 35.6664245 ] } },
{ "type": "Feature", "properties": { "name": null, "type": "cafe", "city": "Tokyo", "cafe_cat_1": "Independent", "id_new": 3593 }, "geometry": { "type": "Point", "coordinates": [ 139.7126001, 35.662981 ] } },
{ "type": "Feature", "properties": { "name": "Eclectic cafe ERIC ROSE", "type": "cafe", "city": "Tokyo", "cafe_cat_1": "Independent", "id_new": 3638 }, "geometry": { "type": "Point", "coordinates": [ 139.7137962, 35.6677932 ] } },
{ "type": "Feature", "properties": { "name": "Pascucci", "type": "cafe", "city": "Tokyo", "cafe_cat_1": "Independent", "id_new": 3645 }, "geometry": { "type": "Point", "coordinates": [ 139.7154701, 35.668861 ] } },
{ "type": "Feature", "properties": { "name": "Starbucks", "type": "cafe", "city": "Tokyo", "cafe_cat_1": "Chain", "id_new": 4495 }, "geometry": { "type": "Point", "coordinates": [ 139.7235642, 35.6730657 ] } },
{ "type": "Feature", "properties": { "name": "Mazda Trans Aoyama", "type": "cafe", "city": "Tokyo", "cafe_cat_1": "Independent", "id_new": 4544 }, "geometry": { "type": "Point", "coordinates": [ 139.7113596, 35.6635387 ] } },
{ "type": "Feature", "properties": { "name": "SHOZO TOKYO STORE CAFE & GROCERY", "type": "cafe", "city": "Tokyo", "cafe_cat_1": "Independent", "id_new": 4581 }, "geometry": { "type": "Point", "coordinates": [ 139.710371752539118, 35.664011399144925 ] } }
]
}
