{"type":"FeatureCollection","features":[{"type":"Feature","id":0,"geometry":{"type":"Point","coordinates":[139.7123995,35.664834399999997]},"properties":{"FID":0,"name":"Dé–˜ifrance","type":"cafe","city":"Tokyo","cafe_categ":"??/??","cafe_cat_1":"Independent"}},{"type":"Feature","id":1,"geometry":{"type":"Point","coordinates":[139.7122143,35.6627194]},"properties":{"FID":1,"name":"Cafe Madu","type":"cafe","city":"Tokyo","cafe_categ":"??/??","cafe_cat_1":"Independent"}},{"type":"Feature","id":2,"geometry":{"type":"Point","coordinates":[139.71113070000001,35.662728100000002]},"properties":{"FID":2,"name":"???????","type":"cafe","city":"Tokyo","cafe_categ":"??","cafe_cat_1":"Chain"}},{"type":"Feature","id":3,"geometry":{"type":"Point","coordinates":[139.71117889999999,35.6633906]},"properties":{"FID":3,"name":"????????????","type":"cafe","city":"Tokyo","cafe_categ":"??","cafe_cat_1":"Chain"}},{"type":"Feature","id":4,"geometry":{"type":"Point","coordinates":[139.7128505,35.663077899999998]},"properties":{"FID":4,"name":"Nomu","type":"cafe","city":"Tokyo","cafe_categ":"??/??","cafe_cat_1":"Independent"}},{"type":"Feature","id":5,"geometry":{"type":"Point","coordinates":[139.71064250000001,35.662767299999999]},"properties":{"FID":5,"name":"??????????","type":"cafe","city":"Tokyo","cafe_categ":"??/??","cafe_cat_1":"Independent"}},{"type":"Feature","id":6,"geometry":{"type":"Point","coordinates":[139.7115451,35.661798699999999]},"properties":{"FID":6,"name":"????","type":"cafe","city":"Tokyo","cafe_categ":"???/??","cafe_cat_1":"Community/Old-fashioned"}},{"type":"Feature","id":7,"geometry":{"type":"Point","coordinates":[139.71739009999999,35.670057900000003]},"properties":{"FID":7,"name":"???????","type":"cafe","city":"Tokyo","cafe_categ":"??","cafe_cat_1":"Chain"}},{"type":"Feature","id":8,"geometry":{"type":"Point","coordinates":[139.71177750000001,35.664736300000001]},"properties":{"FID":8,"name":"???????","type":"cafe","city":"Tokyo","cafe_categ":"??","cafe_cat_1":"Chain"}},{"type":"Feature","id":9,"geometry":{"type":"Point","coordinates":[139.7170021,35.670514400000002]},"properties":{"FID":9,"name":"????????????","type":"cafe","city":"Tokyo","cafe_categ":"??","cafe_cat_1":"Chain"}},{"type":"Feature","id":10,"geometry":{"type":"Point","coordinates":[139.71309439999999,35.663169099999998]},"properties":{"FID":10,"name":"Summerbird","type":"cafe","city":"Tokyo","cafe_categ":"??/??","cafe_cat_1":"Independent"}},{"type":"Feature","id":11,"geometry":{"type":"Point","coordinates":[139.7161055,35.671310900000002]},"properties":{"FID":11,"name":" ","type":"cafe","city":"Tokyo","cafe_categ":"??/??","cafe_cat_1":"Independent"}},{"type":"Feature","id":12,"geometry":{"type":"Point","coordinates":[139.71665250000001,35.670829099999999]},"properties":{"FID":12,"name":"Cafe & Bar FAB","type":"cafe","city":"Tokyo","cafe_categ":"??/??","cafe_cat_1":"Independent"}},{"type":"Feature","id":13,"geometry":{"type":"Point","coordinates":[139.71652320000001,35.666950999999997]},"properties":{"FID":13,"name":"Gramercy Coffee","type":"cafe","city":"Tokyo","cafe_categ":"??/??","cafe_cat_1":"Independent"}},{"type":"Feature","id":14,"geometry":{"type":"Point","coordinates":[139.71780039999999,35.6682408]},"properties":{"FID":14,"name":"????? ?","type":"cafe","city":"Tokyo","cafe_categ":"??/??","cafe_cat_1":"Independent"}},{"type":"Feature","id":15,"geometry":{"type":"Point","coordinates":[139.7172521,35.667932]},"properties":{"FID":15,"name":"Flaps Cafe","type":"cafe","city":"Tokyo","cafe_categ":"??/??","cafe_cat_1":"Independent"}},{"type":"Feature","id":16,"geometry":{"type":"Point","coordinates":[139.7147702,35.670719099999999]},"properties":{"FID":16,"name":"Flambeau","type":"cafe","city":"Tokyo","cafe_categ":"??/??","cafe_cat_1":"Independent"}},{"type":"Feature","id":17,"geometry":{"type":"Point","coordinates":[139.71522949999999,35.666244399999997]},"properties":{"FID":17,"name":"??","type":"cafe","city":"Tokyo","cafe_categ":"??/??","cafe_cat_1":"Independent"}},{"type":"Feature","id":18,"geometry":{"type":"Point","coordinates":[139.71353139999999,35.665869399999998]},"properties":{"FID":18,"name":"Nid Cafe","type":"cafe","city":"Tokyo","cafe_categ":"??/??","cafe_cat_1":"Independent"}},{"type":"Feature","id":19,"geometry":{"type":"Point","coordinates":[139.71310170000001,35.666453799999999]},"properties":{"FID":19,"name":" ","type":"cafe","city":"Tokyo","cafe_categ":"??/??","cafe_cat_1":"Independent"}},{"type":"Feature","id":20,"geometry":{"type":"Point","coordinates":[139.71975900000001,35.670877699999998]},"properties":{"FID":20,"name":"Indigo","type":"cafe","city":"Tokyo","cafe_categ":"??/??","cafe_cat_1":"Independent"}},{"type":"Feature","id":21,"geometry":{"type":"Point","coordinates":[139.72019499999999,35.668810399999998]},"properties":{"FID":21,"name":"Chocolat Chic","type":"cafe","city":"Tokyo","cafe_categ":"??/??","cafe_cat_1":"Independent"}},{"type":"Feature","id":22,"geometry":{"type":"Point","coordinates":[139.71172680000001,35.663550100000002]},"properties":{"FID":22,"name":" ","type":"cafe","city":"Tokyo","cafe_categ":"??/??","cafe_cat_1":"Independent"}},{"type":"Feature","id":23,"geometry":{"type":"Point","coordinates":[139.71214000000001,35.664125400000003]},"properties":{"FID":23,"name":"Pier's Cafe","type":"cafe","city":"Tokyo","cafe_categ":"??/??","cafe_cat_1":"Independent"}},{"type":"Feature","id":24,"geometry":{"type":"Point","coordinates":[139.72046499999999,35.672247200000001]},"properties":{"FID":24,"name":"Royal Garden Cafe","type":"cafe","city":"Tokyo","cafe_categ":"??/??","cafe_cat_1":"Independent"}},{"type":"Feature","id":25,"geometry":{"type":"Point","coordinates":[139.72195300000001,35.671370000000003]},"properties":{"FID":25,"name":"Eight Coffee","type":"cafe","city":"Tokyo","cafe_categ":"??/??","cafe_cat_1":"Independent"}},{"type":"Feature","id":26,"geometry":{"type":"Point","coordinates":[139.71778169999999,35.667648]},"properties":{"FID":26,"name":"Goblin Park","type":"cafe","city":"Tokyo","cafe_categ":"??/??","cafe_cat_1":"Independent"}},{"type":"Feature","id":27,"geometry":{"type":"Point","coordinates":[139.71697739999999,35.670662700000001]},"properties":{"FID":27,"name":"Kawashima","type":"cafe","city":"Tokyo","cafe_categ":"??/??","cafe_cat_1":"Independent"}},{"type":"Feature","id":28,"geometry":{"type":"Point","coordinates":[139.71674659999999,35.669172099999997]},"properties":{"FID":28,"name":"Le Patisser Takagi","type":"cafe","city":"Tokyo","cafe_categ":"??/??","cafe_cat_1":"Independent"}},{"type":"Feature","id":29,"geometry":{"type":"Point","coordinates":[139.71529570000001,35.666356800000003]},"properties":{"FID":29,"name":"Little Pool Coffee Kaikaina","type":"cafe","city":"Tokyo","cafe_categ":"??/??","cafe_cat_1":"Independent"}},{"type":"Feature","id":30,"geometry":{"type":"Point","coordinates":[139.71276259999999,35.663450900000001]},"properties":{"FID":30,"name":" ","type":"cafe","city":"Tokyo","cafe_categ":"??/??","cafe_cat_1":"Independent"}},{"type":"Feature","id":31,"geometry":{"type":"Point","coordinates":[139.713291,35.663507199999998]},"properties":{"FID":31,"name":"Cafe Icho","type":"cafe","city":"Tokyo","cafe_categ":"??/??","cafe_cat_1":"Independent"}},{"type":"Feature","id":32,"geometry":{"type":"Point","coordinates":[139.7133019,35.666404700000001]},"properties":{"FID":32,"name":"?????","type":"cafe","city":"Tokyo","cafe_categ":"??","cafe_cat_1":"Chain"}},{"type":"Feature","id":33,"geometry":{"type":"Point","coordinates":[139.71135530000001,35.663395000000001]},"properties":{"FID":33,"name":"??? ???","type":"cafe","city":"Tokyo","cafe_categ":"??/??","cafe_cat_1":"Independent"}},{"type":"Feature","id":34,"geometry":{"type":"Point","coordinates":[139.7105195,35.663401399999998]},"properties":{"FID":34,"name":"PRONTO","type":"cafe","city":"Tokyo","cafe_categ":"??/??","cafe_cat_1":"Independent"}},{"type":"Feature","id":35,"geometry":{"type":"Point","coordinates":[139.71010999999999,35.665095000000001]},"properties":{"FID":35,"name":"Bacchus","type":"cafe","city":"Tokyo","cafe_categ":"??/??","cafe_cat_1":"Independent"}},{"type":"Feature","id":36,"geometry":{"type":"Point","coordinates":[139.71609330000001,35.670307299999997]},"properties":{"FID":36,"name":" ","type":"cafe","city":"Tokyo","cafe_categ":"??/??","cafe_cat_1":"Independent"}},{"type":"Feature","id":37,"geometry":{"type":"Point","coordinates":[139.72386650000001,35.671643600000003]},"properties":{"FID":37,"name":"??????","type":"cafe","city":"Tokyo","cafe_categ":"??/??","cafe_cat_1":"Independent"}},{"type":"Feature","id":38,"geometry":{"type":"Point","coordinates":[139.71531239999999,35.664775499999998]},"properties":{"FID":38,"name":"Cafe Kitsune","type":"cafe","city":"Tokyo","cafe_categ":"??/??","cafe_cat_1":"Independent"}},{"type":"Feature","id":39,"geometry":{"type":"Point","coordinates":[139.72351649999999,35.6730977]},"properties":{"FID":39,"name":"????????????","type":"cafe","city":"Tokyo","cafe_categ":"??","cafe_cat_1":"Chain"}},{"type":"Feature","id":40,"geometry":{"type":"Point","coordinates":[139.724705,35.672635100000001]},"properties":{"FID":40,"name":"????????????","type":"cafe","city":"Tokyo","cafe_categ":"??","cafe_cat_1":"Chain"}},{"type":"Feature","id":41,"geometry":{"type":"Point","coordinates":[139.7170534,35.671479099999999]},"properties":{"FID":41,"name":"?????????","type":"cafe","city":"Tokyo","cafe_categ":"??/??","cafe_cat_1":"Independent"}},{"type":"Feature","id":42,"geometry":{"type":"Point","coordinates":[139.71285,35.664783399999997]},"properties":{"FID":42,"name":"Aoyama Flower Market (????????????","type":"cafe","city":"Tokyo","cafe_categ":"??/??","cafe_cat_1":"Independent"}},{"type":"Feature","id":43,"geometry":{"type":"Point","coordinates":[139.71455180000001,35.6720118]},"properties":{"FID":43,"name":"GLOCAL CAFE","type":"cafe","city":"Tokyo","cafe_categ":"??/??","cafe_cat_1":"Independent"}},{"type":"Feature","id":44,"geometry":{"type":"Point","coordinates":[139.7171534,35.667881299999998]},"properties":{"FID":44,"name":"Link Cafe Aoyama","type":"cafe","city":"Tokyo","cafe_categ":"??/??","cafe_cat_1":"Independent"}},{"type":"Feature","id":45,"geometry":{"type":"Point","coordinates":[139.7162917,35.669012899999998]},"properties":{"FID":45,"name":"Citron","type":"cafe","city":"Tokyo","cafe_categ":"??/??","cafe_cat_1":"Independent"}},{"type":"Feature","id":46,"geometry":{"type":"Point","coordinates":[139.7113402,35.665998700000003]},"properties":{"FID":46,"name":" ","type":"cafe","city":"Tokyo","cafe_categ":"??/??","cafe_cat_1":"Independent"}},{"type":"Feature","id":47,"geometry":{"type":"Point","coordinates":[139.7105948,35.6645878]},"properties":{"FID":47,"name":"Q-pot cafe","type":"cafe","city":"Tokyo","cafe_categ":"??/??","cafe_cat_1":"Independent"}},{"type":"Feature","id":48,"geometry":{"type":"Point","coordinates":[139.7107556,35.665701499999997]},"properties":{"FID":48,"name":" ","type":"cafe","city":"Tokyo","cafe_categ":"??/??","cafe_cat_1":"Independent"}},{"type":"Feature","id":49,"geometry":{"type":"Point","coordinates":[139.71027960000001,35.663209700000003]},"properties":{"FID":49,"name":"Blenz Coffee","type":"cafe","city":"Tokyo","cafe_categ":"??/??","cafe_cat_1":"Independent"}},{"type":"Feature","id":50,"geometry":{"type":"Point","coordinates":[139.72544439999999,35.672185900000002]},"properties":{"FID":50,"name":"????????","type":"cafe","city":"Tokyo","cafe_categ":"??/??","cafe_cat_1":"Independent"}},{"type":"Feature","id":51,"geometry":{"type":"Point","coordinates":[139.71565440000001,35.667598400000003]},"properties":{"FID":51,"name":"????????????","type":"cafe","city":"Tokyo","cafe_categ":"??","cafe_cat_1":"Chain"}},{"type":"Feature","id":52,"geometry":{"type":"Point","coordinates":[139.7112003,35.664372499999999]},"properties":{"FID":52,"name":"Rituel","type":"cafe","city":"Tokyo","cafe_categ":"??/??","cafe_cat_1":"Independent"}},{"type":"Feature","id":53,"geometry":{"type":"Point","coordinates":[139.7121716,35.662440099999998]},"properties":{"FID":53,"name":"Granny Smith","type":"cafe","city":"Tokyo","cafe_categ":"??/??","cafe_cat_1":"Independent"}},{"type":"Feature","id":54,"geometry":{"type":"Point","coordinates":[139.70980499999999,35.6637153]},"properties":{"FID":54,"name":" ","type":"cafe","city":"Tokyo","cafe_categ":"??/??","cafe_cat_1":"Independent"}},{"type":"Feature","id":55,"geometry":{"type":"Point","coordinates":[139.7126763,35.6658045]},"properties":{"FID":55,"name":"bamboo","type":"cafe","city":"Tokyo","cafe_categ":"??/??","cafe_cat_1":"Independent"}},{"type":"Feature","id":56,"geometry":{"type":"Point","coordinates":[139.71384560000001,35.665269899999998]},"properties":{"FID":56,"name":"Blue Bottle Coffee","type":"cafe","city":"Tokyo","cafe_categ":"??/??","cafe_cat_1":"Independent"}},{"type":"Feature","id":57,"geometry":{"type":"Point","coordinates":[139.7136754,35.665278899999997]},"properties":{"FID":57,"name":"choupette","type":"cafe","city":"Tokyo","cafe_categ":"??/??","cafe_cat_1":"Independent"}},{"type":"Feature","id":58,"geometry":{"type":"Point","coordinates":[139.71012970000001,35.663669200000001]},"properties":{"FID":58,"name":"Number A","type":"cafe","city":"Tokyo","cafe_categ":"??/??","cafe_cat_1":"Independent"}},{"type":"Feature","id":59,"geometry":{"type":"Point","coordinates":[139.7142724,35.665737999999997]},"properties":{"FID":59,"name":"Maruyama Coffee","type":"cafe","city":"Tokyo","cafe_categ":"??/??","cafe_cat_1":"Independent"}},{"type":"Feature","id":60,"geometry":{"type":"Point","coordinates":[139.71435210000001,35.666424499999998]},"properties":{"FID":60,"name":" ","type":"cafe","city":"Tokyo","cafe_categ":"??/??","cafe_cat_1":"Independent"}},{"type":"Feature","id":61,"geometry":{"type":"Point","coordinates":[139.7126001,35.662981000000002]},"properties":{"FID":61,"name":" ","type":"cafe","city":"Tokyo","cafe_categ":"??/??","cafe_cat_1":"Independent"}},{"type":"Feature","id":62,"geometry":{"type":"Point","coordinates":[139.71379619999999,35.667793199999998]},"properties":{"FID":62,"name":"Eclectic cafe ERIC ROSE","type":"cafe","city":"Tokyo","cafe_categ":"??/??","cafe_cat_1":"Independent"}},{"type":"Feature","id":63,"geometry":{"type":"Point","coordinates":[139.7154701,35.668861]},"properties":{"FID":63,"name":"Pascucci","type":"cafe","city":"Tokyo","cafe_categ":"??/??","cafe_cat_1":"Independent"}},{"type":"Feature","id":64,"geometry":{"type":"Point","coordinates":[139.7235642,35.673065700000002]},"properties":{"FID":64,"name":"Starbucks","type":"cafe","city":"Tokyo","cafe_categ":"??","cafe_cat_1":"Chain"}},{"type":"Feature","id":65,"geometry":{"type":"Point","coordinates":[139.71135960000001,35.663538699999997]},"properties":{"FID":65,"name":"Mazda Trans Aoyama","type":"cafe","city":"Tokyo","cafe_categ":"??/??","cafe_cat_1":"Independent"}},{"type":"Feature","id":66,"geometry":{"type":"Point","coordinates":[139.71037175253912,35.664011399144925]},"properties":{"FID":66,"name":"SHOZO TOKYO STORE CAFE & GROCERY","type":"cafe","city":"Tokyo","cafe_categ":"??/??","cafe_cat_1":"Independent"}}]}