{
"type": "FeatureCollection",
"crs": { "type": "name", "properties": { "name": "urn:ogc:def:crs:OGC:1.3:CRS84" } },
"features": [
{ "type": "Feature", "properties": { "name": "Pappelburg", "type": "cafe", "city": "Tokyo", "cafe_cat_1": "Independent", "id_new": 0 }, "geometry": { "type": "Point", "coordinates": [ 139.3411424, 35.6205194 ] } },
{ "type": "Feature", "properties": { "name": "Takao Coffee", "type": "cafe", "city": "Tokyo", "cafe_cat_1": "Independent", "id_new": 1 }, "geometry": { "type": "Point", "coordinates": [ 139.269757, 35.63032 ] } },
{ "type": "Feature", "properties": { "name": "Sepia Cafe", "type": "cafe", "city": "Tokyo", "cafe_cat_1": "Independent", "id_new": 2 }, "geometry": { "type": "Point", "coordinates": [ 139.4480946, 35.5424477 ] } },
{ "type": "Feature", "properties": { "name": "スターバックス", "type": "cafe", "city": "Tokyo", "cafe_cat_1": "Independent", "id_new": 3 }, "geometry": { "type": "Point", "coordinates": [ 139.4467636, 35.6497866 ] } },
{ "type": "Feature", "properties": { "name": "ドトールコーヒーショップ", "type": "cafe", "city": "Tokyo", "cafe_cat_1": "Chain", "id_new": 4 }, "geometry": { "type": "Point", "coordinates": [ 139.448204299999986, 35.6508258 ] } },
{ "type": "Feature", "properties": { "name": "freshly roasted Coffee", "type": "cafe", "city": "Tokyo", "cafe_cat_1": "Independent", "id_new": 5 }, "geometry": { "type": "Point", "coordinates": [ 139.4480141, 35.6998738 ] } },
{ "type": "Feature", "properties": { "name": "サンマルクカフェ", "type": "cafe", "city": "Tokyo", "cafe_cat_1": "Chain", "id_new": 6 }, "geometry": { "type": "Point", "coordinates": [ 139.4256082, 35.6234199 ] } },
{ "type": "Feature", "properties": { "name": "自遊空間", "type": "cafe", "city": "Tokyo", "cafe_cat_1": "Independent", "id_new": 7 }, "geometry": { "type": "Point", "coordinates": [ 139.425555800000012, 35.6245204 ] } },
{ "type": "Feature", "properties": { "name": "ノンノン", "type": "cafe", "city": "Tokyo", "cafe_cat_1": "Independent", "id_new": 8 }, "geometry": { "type": "Point", "coordinates": [ 139.4276544, 35.6898451 ] } },
{ "type": "Feature", "properties": { "name": "ビアンカ", "type": "cafe", "city": "Tokyo", "cafe_cat_1": "Independent", "id_new": 9 }, "geometry": { "type": "Point", "coordinates": [ 139.435609199999988, 35.7001275 ] } },
{ "type": "Feature", "properties": { "name": "珈琲館 羽村店", "type": "cafe", "city": "Tokyo", "cafe_cat_1": "Chain", "id_new": 10 }, "geometry": { "type": "Point", "coordinates": [ 139.3055483, 35.7757708 ] } },
{ "type": "Feature", "properties": { "name": "スターバックス", "type": "cafe", "city": "Tokyo", "cafe_cat_1": "Independent", "id_new": 11 }, "geometry": { "type": "Point", "coordinates": [ 139.3796053, 35.6000977 ] } },
{ "type": "Feature", "properties": { "name": "宮越屋珈琲", "type": "cafe", "city": "Tokyo", "cafe_cat_1": "Community/Old-fashioned", "id_new": 12 }, "geometry": { "type": "Point", "coordinates": [ 139.445742200000012, 35.5441497 ] } },
{ "type": "Feature", "properties": { "name": "スターバックス", "type": "cafe", "city": "Tokyo", "cafe_cat_1": "Independent", "id_new": 13 }, "geometry": { "type": "Point", "coordinates": [ 139.3159459, 35.7939894 ] } },
{ "type": "Feature", "properties": { "name": "パセリ", "type": "cafe", "city": "Tokyo", "cafe_cat_1": "Independent", "id_new": 14 }, "geometry": { "type": "Point", "coordinates": [ 139.310315300000013, 35.7865752 ] } },
{ "type": "Feature", "properties": { "name": "珈夢異", "type": "cafe", "city": "Tokyo", "cafe_cat_1": "Independent", "id_new": 15 }, "geometry": { "type": "Point", "coordinates": [ 139.298924199999988, 35.7935017 ] } },
{ "type": "Feature", "properties": { "name": "喫茶アルル", "type": "cafe", "city": "Tokyo", "cafe_cat_1": "Community/Old-fashioned", "id_new": 16 }, "geometry": { "type": "Point", "coordinates": [ 139.3688905, 35.602559 ] } },
{ "type": "Feature", "properties": { "name": "カフェ・ド・クリエ", "type": "cafe", "city": "Tokyo", "cafe_cat_1": "Community/Old-fashioned", "id_new": 17 }, "geometry": { "type": "Point", "coordinates": [ 139.4141889, 35.6998503 ] } },
{ "type": "Feature", "properties": { "name": "カフェ・ド・クリエ", "type": "cafe", "city": "Tokyo", "cafe_cat_1": "Community/Old-fashioned", "id_new": 18 }, "geometry": { "type": "Point", "coordinates": [ 139.3791934, 35.6128026 ] } },
{ "type": "Feature", "properties": { "name": "カフェ・ド・クリエ", "type": "cafe", "city": "Tokyo", "cafe_cat_1": "Community/Old-fashioned", "id_new": 19 }, "geometry": { "type": "Point", "coordinates": [ 139.414845, 35.6974621 ] } },
{ "type": "Feature", "properties": { "name": "ドトールコーヒーショップ", "type": "cafe", "city": "Tokyo", "cafe_cat_1": "Chain", "id_new": 20 }, "geometry": { "type": "Point", "coordinates": [ 139.3806616, 35.6605138 ] } },
{ "type": "Feature", "properties": { "name": "珈琲 まよか", "type": "cafe", "city": "Tokyo", "cafe_cat_1": "Community/Old-fashioned", "id_new": 21 }, "geometry": { "type": "Point", "coordinates": [ 139.33007760000001, 35.7357686 ] } },
{ "type": "Feature", "properties": { "name": "タリーズコーヒー", "type": "cafe", "city": "Tokyo", "cafe_cat_1": "Chain", "id_new": 22 }, "geometry": { "type": "Point", "coordinates": [ 139.448058800000013, 35.6293562 ] } },
{ "type": "Feature", "properties": { "name": "スターバックス", "type": "cafe", "city": "Tokyo", "cafe_cat_1": "Independent", "id_new": 23 }, "geometry": { "type": "Point", "coordinates": [ 139.4252046, 35.6228559 ] } },
{ "type": "Feature", "properties": { "name": "タリーズコーヒー", "type": "cafe", "city": "Tokyo", "cafe_cat_1": "Chain", "id_new": 24 }, "geometry": { "type": "Point", "coordinates": [ 139.4139945, 35.6616332 ] } },
{ "type": "Feature", "properties": { "name": "コメダ珈琲店", "type": "cafe", "city": "Tokyo", "cafe_cat_1": "Chain", "id_new": 25 }, "geometry": { "type": "Point", "coordinates": [ 139.4132382, 35.6170162 ] } },
{ "type": "Feature", "properties": { "name": "コメダ珈琲店", "type": "cafe", "city": "Tokyo", "cafe_cat_1": "Chain", "id_new": 26 }, "geometry": { "type": "Point", "coordinates": [ 139.444794699999989, 35.5654804 ] } },
{ "type": "Feature", "properties": { "name": "コメダ珈琲店", "type": "cafe", "city": "Tokyo", "cafe_cat_1": "Chain", "id_new": 27 }, "geometry": { "type": "Point", "coordinates": [ 139.4277936, 35.5536939 ] } },
{ "type": "Feature", "properties": { "name": "Funny Face", "type": "cafe", "city": "Tokyo", "cafe_cat_1": "Independent", "id_new": 28 }, "geometry": { "type": "Point", "coordinates": [ 139.4158531, 35.6369923 ] } },
{ "type": "Feature", "properties": { "name": "サカエヤ茶楼", "type": "cafe", "city": "Tokyo", "cafe_cat_1": "Independent", "id_new": 29 }, "geometry": { "type": "Point", "coordinates": [ 139.392239, 35.678934 ] } },
{ "type": "Feature", "properties": { "name": "BASEL", "type": "cafe", "city": "Tokyo", "cafe_cat_1": "Independent", "id_new": 30 }, "geometry": { "type": "Point", "coordinates": [ 139.37725180000001, 35.6677191 ] } },
{ "type": "Feature", "properties": { "name": "ヨコタン", "type": "cafe", "city": "Tokyo", "cafe_cat_1": "Independent", "id_new": 31 }, "geometry": { "type": "Point", "coordinates": [ 139.3067839, 35.7695826 ] } },
{ "type": "Feature", "properties": { "name": "タリーズコーヒー", "type": "cafe", "city": "Tokyo", "cafe_cat_1": "Chain", "id_new": 32 }, "geometry": { "type": "Point", "coordinates": [ 139.4444308, 35.5429153 ] } },
{ "type": "Feature", "properties": { "name": "スターバックス", "type": "cafe", "city": "Tokyo", "cafe_cat_1": "Independent", "id_new": 33 }, "geometry": { "type": "Point", "coordinates": [ 139.4440592, 35.5431503 ] } },
{ "type": "Feature", "properties": { "name": "ハーツ", "type": "cafe", "city": "Tokyo", "cafe_cat_1": "Independent", "id_new": 34 }, "geometry": { "type": "Point", "coordinates": [ 139.41524, 35.700061 ] } },
{ "type": "Feature", "properties": { "name": "スターバックス", "type": "cafe", "city": "Tokyo", "cafe_cat_1": "Independent", "id_new": 35 }, "geometry": { "type": "Point", "coordinates": [ 139.288058400000011, 35.6649105 ] } },
{ "type": "Feature", "properties": { "name": "G.M.", "type": "cafe", "city": "Tokyo", "cafe_cat_1": "Independent", "id_new": 36 }, "geometry": { "type": "Point", "coordinates": [ 139.3354448, 35.6554634 ] } },
{ "type": "Feature", "properties": { "name": "NICO CAFE", "type": "cafe", "city": "Tokyo", "cafe_cat_1": "Independent", "id_new": 37 }, "geometry": { "type": "Point", "coordinates": [ 139.341331, 35.655707 ] } },
{ "type": "Feature", "properties": { "name": "スターバックス", "type": "cafe", "city": "Tokyo", "cafe_cat_1": "Independent", "id_new": 38 }, "geometry": { "type": "Point", "coordinates": [ 139.4469307, 35.6979404 ] } },
{ "type": "Feature", "properties": { "name": "BASEL", "type": "cafe", "city": "Tokyo", "cafe_cat_1": "Independent", "id_new": 39 }, "geometry": { "type": "Point", "coordinates": [ 139.365168, 35.663697 ] } },
{ "type": "Feature", "properties": { "name": "タリーズコーヒー", "type": "cafe", "city": "Tokyo", "cafe_cat_1": "Chain", "id_new": 40 }, "geometry": { "type": "Point", "coordinates": [ 139.341018, 35.656958 ] } },
{ "type": "Feature", "properties": { "name": "喫茶樹樹", "type": "cafe", "city": "Tokyo", "cafe_cat_1": "Community/Old-fashioned", "id_new": 41 }, "geometry": { "type": "Point", "coordinates": [ 139.329034, 35.763115 ] } },
{ "type": "Feature", "properties": { "name": "Canaan", "type": "cafe", "city": "Tokyo", "cafe_cat_1": "Independent", "id_new": 42 }, "geometry": { "type": "Point", "coordinates": [ 139.3682449, 35.6583981 ] } },
{ "type": "Feature", "properties": { "name": "ねじまき雲", "type": "cafe", "city": "Tokyo", "cafe_cat_1": "Independent", "id_new": 43 }, "geometry": { "type": "Point", "coordinates": [ 139.254911, 35.789843 ] } },
{ "type": "Feature", "properties": { "name": "夏への扉", "type": "cafe", "city": "Tokyo", "cafe_cat_1": "Independent", "id_new": 44 }, "geometry": { "type": "Point", "coordinates": [ 139.2607983, 35.7904217 ] } },
{ "type": "Feature", "properties": { "name": "タリーズコーヒー", "type": "cafe", "city": "Tokyo", "cafe_cat_1": "Chain", "id_new": 45 }, "geometry": { "type": "Point", "coordinates": [ 139.4248287, 35.6253932 ] } },
{ "type": "Feature", "properties": { "name": "ドトールコーヒーショップ", "type": "cafe", "city": "Tokyo", "cafe_cat_1": "Chain", "id_new": 46 }, "geometry": { "type": "Point", "coordinates": [ 139.4243167, 35.6250208 ] } },
{ "type": "Feature", "properties": { "name": "多摩ワールドコーヒー", "type": "cafe", "city": "Tokyo", "cafe_cat_1": "Independent", "id_new": 47 }, "geometry": { "type": "Point", "coordinates": [ 139.29282, 35.7948128 ] } },
{ "type": "Feature", "properties": { "name": "ドトールコーヒーショップ", "type": "cafe", "city": "Tokyo", "cafe_cat_1": "Chain", "id_new": 48 }, "geometry": { "type": "Point", "coordinates": [ 139.33128210000001, 35.6436524 ] } },
{ "type": "Feature", "properties": { "name": "Yakata", "type": "cafe", "city": "Tokyo", "cafe_cat_1": "Independent", "id_new": 49 }, "geometry": { "type": "Point", "coordinates": [ 139.271075200000013, 35.6380449 ] } },
{ "type": "Feature", "properties": { "name": "カフェ・ベローチェ", "type": "cafe", "city": "Tokyo", "cafe_cat_1": "Chain", "id_new": 50 }, "geometry": { "type": "Point", "coordinates": [ 139.4135722, 35.6953763 ] } },
{ "type": "Feature", "properties": { "name": "カフェテラス コスモス", "type": "cafe", "city": "Tokyo", "cafe_cat_1": "Community/Old-fashioned", "id_new": 51 }, "geometry": { "type": "Point", "coordinates": [ 139.344293, 35.653751 ] } },
{ "type": "Feature", "properties": { "name": "スターバックス", "type": "cafe", "city": "Tokyo", "cafe_cat_1": "Independent", "id_new": 52 }, "geometry": { "type": "Point", "coordinates": [ 139.411244, 35.6701953 ] } },
{ "type": "Feature", "properties": { "name": "ラパン・アジル", "type": "cafe", "city": "Tokyo", "cafe_cat_1": "Independent", "id_new": 53 }, "geometry": { "type": "Point", "coordinates": [ 139.2900163, 35.786494 ] } },
{ "type": "Feature", "properties": { "name": "エクセルシオール カフェ", "type": "cafe", "city": "Tokyo", "cafe_cat_1": "Community/Old-fashioned", "id_new": 54 }, "geometry": { "type": "Point", "coordinates": [ 139.446132299999988, 35.6986244 ] } },
{ "type": "Feature", "properties": { "name": "タリーズコーヒー", "type": "cafe", "city": "Tokyo", "cafe_cat_1": "Chain", "id_new": 55 }, "geometry": { "type": "Point", "coordinates": [ 139.4454989, 35.6981215 ] } },
{ "type": "Feature", "properties": { "name": "ルノアール", "type": "cafe", "city": "Tokyo", "cafe_cat_1": "Independent", "id_new": 56 }, "geometry": { "type": "Point", "coordinates": [ 139.447196, 35.698359 ] } },
{ "type": "Feature", "properties": { "name": "akari cafe", "type": "cafe", "city": "Tokyo", "cafe_cat_1": "Independent", "id_new": 57 }, "geometry": { "type": "Point", "coordinates": [ 139.4123188, 35.7018431 ] } },
{ "type": "Feature", "properties": { "name": "炭火焙煎珈琲 桜乃", "type": "cafe", "city": "Tokyo", "cafe_cat_1": "Community/Old-fashioned", "id_new": 58 }, "geometry": { "type": "Point", "coordinates": [ 139.4123172, 35.7017215 ] } },
{ "type": "Feature", "properties": { "name": "PRONTO", "type": "cafe", "city": "Tokyo", "cafe_cat_1": "Independent", "id_new": 59 }, "geometry": { "type": "Point", "coordinates": [ 139.4141225, 35.6996476 ] } },
{ "type": "Feature", "properties": { "name": "珈琲はなや", "type": "cafe", "city": "Tokyo", "cafe_cat_1": "Community/Old-fashioned", "id_new": 60 }, "geometry": { "type": "Point", "coordinates": [ 139.414417, 35.699108 ] } },
{ "type": "Feature", "properties": { "name": "エクセルシオール カフェ", "type": "cafe", "city": "Tokyo", "cafe_cat_1": "Community/Old-fashioned", "id_new": 61 }, "geometry": { "type": "Point", "coordinates": [ 139.414665899999989, 35.6986544 ] } },
{ "type": "Feature", "properties": { "name": "Cafe VELOCE", "type": "cafe", "city": "Tokyo", "cafe_cat_1": "Independent", "id_new": 62 }, "geometry": { "type": "Point", "coordinates": [ 139.414806, 35.699568 ] } },
{ "type": "Feature", "properties": { "name": "高倉町珈琲", "type": "cafe", "city": "Tokyo", "cafe_cat_1": "Community/Old-fashioned", "id_new": 63 }, "geometry": { "type": "Point", "coordinates": [ 139.302142300000014, 35.7231741 ] } },
{ "type": "Feature", "properties": { "name": "ドトールコーヒーショップ", "type": "cafe", "city": "Tokyo", "cafe_cat_1": "Chain", "id_new": 64 }, "geometry": { "type": "Point", "coordinates": [ 139.414010100000013, 35.6968412 ] } },
{ "type": "Feature", "properties": { "name": "白十字", "type": "cafe", "city": "Tokyo", "cafe_cat_1": "Independent", "id_new": 65 }, "geometry": { "type": "Point", "coordinates": [ 139.446398, 35.697786 ] } },
{ "type": "Feature", "properties": { "name": "HACHI CAFE", "type": "cafe", "city": "Tokyo", "cafe_cat_1": "Independent", "id_new": 66 }, "geometry": { "type": "Point", "coordinates": [ 139.337602, 35.742581 ] } },
{ "type": "Feature", "properties": { "name": "ルノアール", "type": "cafe", "city": "Tokyo", "cafe_cat_1": "Independent", "id_new": 67 }, "geometry": { "type": "Point", "coordinates": [ 139.4151262, 35.6986476 ] } },
{ "type": "Feature", "properties": { "name": "くるてく", "type": "cafe", "city": "Tokyo", "cafe_cat_1": "Independent", "id_new": 68 }, "geometry": { "type": "Point", "coordinates": [ 139.3470769, 35.6032358 ] } },
{ "type": "Feature", "properties": { "name": "cafe 海の塔", "type": "cafe", "city": "Tokyo", "cafe_cat_1": "Independent", "id_new": 69 }, "geometry": { "type": "Point", "coordinates": [ 139.2671795, 35.6579066 ] } },
{ "type": "Feature", "properties": { "name": "CROWN", "type": "cafe", "city": "Tokyo", "cafe_cat_1": "Independent", "id_new": 70 }, "geometry": { "type": "Point", "coordinates": [ 139.416395, 35.694076 ] } },
{ "type": "Feature", "properties": { "name": "Garden and Crafts Cafe", "type": "cafe", "city": "Tokyo", "cafe_cat_1": "Independent", "id_new": 71 }, "geometry": { "type": "Point", "coordinates": [ 139.416844, 35.685654 ] } },
{ "type": "Feature", "properties": { "name": "VARAMON", "type": "cafe", "city": "Tokyo", "cafe_cat_1": "Independent", "id_new": 72 }, "geometry": { "type": "Point", "coordinates": [ 139.440052, 35.681804 ] } },
{ "type": "Feature", "properties": { "name": "みる", "type": "cafe", "city": "Tokyo", "cafe_cat_1": "Independent", "id_new": 73 }, "geometry": { "type": "Point", "coordinates": [ 139.4454603, 35.6811968 ] } },
{ "type": "Feature", "properties": { "name": "Galerie Cafe M", "type": "cafe", "city": "Tokyo", "cafe_cat_1": "Independent", "id_new": 74 }, "geometry": { "type": "Point", "coordinates": [ 139.445472, 35.682625 ] } },
{ "type": "Feature", "properties": { "name": "Net cafe コミックバスター", "type": "cafe", "city": "Tokyo", "cafe_cat_1": "Independent", "id_new": 75 }, "geometry": { "type": "Point", "coordinates": [ 139.380146, 35.660151 ] } },
{ "type": "Feature", "properties": { "name": "ドトールコーヒーショップ", "type": "cafe", "city": "Tokyo", "cafe_cat_1": "Chain", "id_new": 76 }, "geometry": { "type": "Point", "coordinates": [ 139.3279432, 35.7425625 ] } },
{ "type": "Feature", "properties": { "name": "Cafe du jardin", "type": "cafe", "city": "Tokyo", "cafe_cat_1": "Independent", "id_new": 77 }, "geometry": { "type": "Point", "coordinates": [ 139.32674, 35.741612 ] } },
{ "type": "Feature", "properties": { "name": "和田峠茶屋", "type": "cafe", "city": "Tokyo", "cafe_cat_1": "Independent", "id_new": 78 }, "geometry": { "type": "Point", "coordinates": [ 139.1685115, 35.6575559 ] } },
{ "type": "Feature", "properties": { "name": "ダイコクヤ", "type": "cafe", "city": "Tokyo", "cafe_cat_1": "Independent", "id_new": 79 }, "geometry": { "type": "Point", "coordinates": [ 139.28039, 35.64248 ] } },
{ "type": "Feature", "properties": { "name": "GARAGE HALF", "type": "cafe", "city": "Tokyo", "cafe_cat_1": "Independent", "id_new": 80 }, "geometry": { "type": "Point", "coordinates": [ 139.3008231, 35.6516968 ] } },
{ "type": "Feature", "properties": { "name": "Cafe ENLARGE", "type": "cafe", "city": "Tokyo", "cafe_cat_1": "Independent", "id_new": 81 }, "geometry": { "type": "Point", "coordinates": [ 139.308625, 35.656164 ] } },
{ "type": "Feature", "properties": { "name": "Brasserie BASEL", "type": "cafe", "city": "Tokyo", "cafe_cat_1": "Independent", "id_new": 82 }, "geometry": { "type": "Point", "coordinates": [ 139.3425128, 35.6576087 ] } },
{ "type": "Feature", "properties": { "name": "星乃珈琲店", "type": "cafe", "city": "Tokyo", "cafe_cat_1": "Community/Old-fashioned", "id_new": 83 }, "geometry": { "type": "Point", "coordinates": [ 139.3025192, 35.7843033 ] } },
{ "type": "Feature", "properties": { "name": "長尾茶屋", "type": "cafe", "city": "Tokyo", "cafe_cat_1": "Independent", "id_new": 84 }, "geometry": { "type": "Point", "coordinates": [ 139.1502154, 35.7819153 ] } },
{ "type": "Feature", "properties": { "name": "Cafe de Soeur", "type": "cafe", "city": "Tokyo", "cafe_cat_1": "Independent", "id_new": 85 }, "geometry": { "type": "Point", "coordinates": [ 139.408409299999988, 35.6148806 ] } },
{ "type": "Feature", "properties": { "name": "星乃珈琲店", "type": "cafe", "city": "Tokyo", "cafe_cat_1": "Community/Old-fashioned", "id_new": 86 }, "geometry": { "type": "Point", "coordinates": [ 139.385640200000012, 35.6097592 ] } },
{ "type": "Feature", "properties": { "name": "SAKURAYA", "type": "cafe", "city": "Tokyo", "cafe_cat_1": "Independent", "id_new": 87 }, "geometry": { "type": "Point", "coordinates": [ 139.3329398, 35.6607976 ] } },
{ "type": "Feature", "properties": { "name": "Chat Box", "type": "cafe", "city": "Tokyo", "cafe_cat_1": "Independent", "id_new": 88 }, "geometry": { "type": "Point", "coordinates": [ 139.4473294, 35.6365352 ] } },
{ "type": "Feature", "properties": { "name": "くりの木", "type": "cafe", "city": "Tokyo", "cafe_cat_1": "Independent", "id_new": 89 }, "geometry": { "type": "Point", "coordinates": [ 139.437700299999989, 35.6413592 ] } },
{ "type": "Feature", "properties": { "name": "Cafe Roju", "type": "cafe", "city": "Tokyo", "cafe_cat_1": "Independent", "id_new": 90 }, "geometry": { "type": "Point", "coordinates": [ 139.35904, 35.659813 ] } },
{ "type": "Feature", "properties": { "name": "あり田", "type": "cafe", "city": "Tokyo", "cafe_cat_1": "Independent", "id_new": 91 }, "geometry": { "type": "Point", "coordinates": [ 139.4014745, 35.6743997 ] } },
{ "type": "Feature", "properties": { "name": "ベアトリーチェ", "type": "cafe", "city": "Tokyo", "cafe_cat_1": "Independent", "id_new": 92 }, "geometry": { "type": "Point", "coordinates": [ 139.377929, 35.6624832 ] } },
{ "type": "Feature", "properties": { "name": "コメダ珈琲店", "type": "cafe", "city": "Tokyo", "cafe_cat_1": "Chain", "id_new": 93 }, "geometry": { "type": "Point", "coordinates": [ 139.3132013, 35.7841476 ] } },
{ "type": "Feature", "properties": { "name": "サンマルクカフェ", "type": "cafe", "city": "Tokyo", "cafe_cat_1": "Chain", "id_new": 94 }, "geometry": { "type": "Point", "coordinates": [ 139.384564, 35.747293 ] } },
{ "type": "Feature", "properties": { "name": "スターバックス", "type": "cafe", "city": "Tokyo", "cafe_cat_1": "Independent", "id_new": 95 }, "geometry": { "type": "Point", "coordinates": [ 139.38502, 35.745693 ] } },
{ "type": "Feature", "properties": { "name": "CAFE BURU7 BAR", "type": "cafe", "city": "Tokyo", "cafe_cat_1": "Independent", "id_new": 96 }, "geometry": { "type": "Point", "coordinates": [ 139.415476899999987, 35.7004648 ] } },
{ "type": "Feature", "properties": { "name": "喫茶まぁる", "type": "cafe", "city": "Tokyo", "cafe_cat_1": "Community/Old-fashioned", "id_new": 97 }, "geometry": { "type": "Point", "coordinates": [ 139.396542, 35.678469 ] } },
{ "type": "Feature", "properties": { "name": "スターバックス", "type": "cafe", "city": "Tokyo", "cafe_cat_1": "Independent", "id_new": 98 }, "geometry": { "type": "Point", "coordinates": [ 139.401174, 35.628837 ] } },
{ "type": "Feature", "properties": { "name": "こすもす", "type": "cafe", "city": "Tokyo", "cafe_cat_1": "Independent", "id_new": 99 }, "geometry": { "type": "Point", "coordinates": [ 139.341088, 35.642341 ] } },
{ "type": "Feature", "properties": { "name": "高倉町珈琲", "type": "cafe", "city": "Tokyo", "cafe_cat_1": "Community/Old-fashioned", "id_new": 100 }, "geometry": { "type": "Point", "coordinates": [ 139.363221, 35.665884 ] } },
{ "type": "Feature", "properties": { "name": "ドトールコーヒーショップ", "type": "cafe", "city": "Tokyo", "cafe_cat_1": "Chain", "id_new": 101 }, "geometry": { "type": "Point", "coordinates": [ 139.4461981, 35.5444699 ] } },
{ "type": "Feature", "properties": { "name": "Ichiro san no キマグレ cafe", "type": "cafe", "city": "Tokyo", "cafe_cat_1": "Independent", "id_new": 102 }, "geometry": { "type": "Point", "coordinates": [ 139.2933472, 35.7729793 ] } },
{ "type": "Feature", "properties": { "name": "ねこのみせ", "type": "cafe", "city": "Tokyo", "cafe_cat_1": "Independent", "id_new": 103 }, "geometry": { "type": "Point", "coordinates": [ 139.446322, 35.5412543 ] } },
{ "type": "Feature", "properties": { "name": "スターバックス", "type": "cafe", "city": "Tokyo", "cafe_cat_1": "Independent", "id_new": 104 }, "geometry": { "type": "Point", "coordinates": [ 139.4462936, 35.5430251 ] } },
{ "type": "Feature", "properties": { "name": "スターバックス", "type": "cafe", "city": "Tokyo", "cafe_cat_1": "Independent", "id_new": 105 }, "geometry": { "type": "Point", "coordinates": [ 139.3385672, 35.6572221 ] } },
{ "type": "Feature", "properties": { "name": "やまびこ", "type": "cafe", "city": "Tokyo", "cafe_cat_1": "Independent", "id_new": 106 }, "geometry": { "type": "Point", "coordinates": [ 139.142205, 35.729576 ] } },
{ "type": "Feature", "properties": { "name": "Trois Rivieres", "type": "cafe", "city": "Tokyo", "cafe_cat_1": "Independent", "id_new": 107 }, "geometry": { "type": "Point", "coordinates": [ 139.4460882, 35.5436395 ] } },
{ "type": "Feature", "properties": { "name": "01CAFE", "type": "cafe", "city": "Tokyo", "cafe_cat_1": "Independent", "id_new": 108 }, "geometry": { "type": "Point", "coordinates": [ 139.4474358, 35.5427838 ] } },
{ "type": "Feature", "properties": { "name": "ドトールコーヒーショップ", "type": "cafe", "city": "Tokyo", "cafe_cat_1": "Chain", "id_new": 109 }, "geometry": { "type": "Point", "coordinates": [ 139.447706, 35.5430938 ] } },
{ "type": "Feature", "properties": { "name": "iho iho", "type": "cafe", "city": "Tokyo", "cafe_cat_1": "Independent", "id_new": 110 }, "geometry": { "type": "Point", "coordinates": [ 139.447692100000012, 35.5420588 ] } },
{ "type": "Feature", "properties": { "name": "カフェ グレ", "type": "cafe", "city": "Tokyo", "cafe_cat_1": "Community/Old-fashioned", "id_new": 111 }, "geometry": { "type": "Point", "coordinates": [ 139.4477173, 35.5420161 ] } },
{ "type": "Feature", "properties": { "name": "珈琲舎 ロッセ", "type": "cafe", "city": "Tokyo", "cafe_cat_1": "Community/Old-fashioned", "id_new": 112 }, "geometry": { "type": "Point", "coordinates": [ 139.4480543, 35.5414975 ] } },
{ "type": "Feature", "properties": { "name": "ドトールコーヒーショップ", "type": "cafe", "city": "Tokyo", "cafe_cat_1": "Chain", "id_new": 113 }, "geometry": { "type": "Point", "coordinates": [ 139.4456466, 35.5456968 ] } },
{ "type": "Feature", "properties": { "name": "ドトールコーヒーショップ", "type": "cafe", "city": "Tokyo", "cafe_cat_1": "Chain", "id_new": 114 }, "geometry": { "type": "Point", "coordinates": [ 139.316453, 35.758278 ] } },
{ "type": "Feature", "properties": { "name": "The Cafe", "type": "cafe", "city": "Tokyo", "cafe_cat_1": "Independent", "id_new": 115 }, "geometry": { "type": "Point", "coordinates": [ 139.4461751, 35.5435164 ] } },
{ "type": "Feature", "properties": { "name": "Latte Graphic", "type": "cafe", "city": "Tokyo", "cafe_cat_1": "Independent", "id_new": 116 }, "geometry": { "type": "Point", "coordinates": [ 139.446242399999988, 35.5442437 ] } },
{ "type": "Feature", "properties": { "name": "Sun's Cafe", "type": "cafe", "city": "Tokyo", "cafe_cat_1": "Independent", "id_new": 117 }, "geometry": { "type": "Point", "coordinates": [ 139.4469643, 35.547021 ] } },
{ "type": "Feature", "properties": { "name": "Sugar", "type": "cafe", "city": "Tokyo", "cafe_cat_1": "Independent", "id_new": 118 }, "geometry": { "type": "Point", "coordinates": [ 139.334171, 35.734443 ] } },
{ "type": "Feature", "properties": { "name": "ドトールコーヒーショップ", "type": "cafe", "city": "Tokyo", "cafe_cat_1": "Chain", "id_new": 119 }, "geometry": { "type": "Point", "coordinates": [ 139.287673399999989, 35.7304538 ] } },
{ "type": "Feature", "properties": { "name": "すてっぷ", "type": "cafe", "city": "Tokyo", "cafe_cat_1": "Independent", "id_new": 120 }, "geometry": { "type": "Point", "coordinates": [ 139.420781, 35.691364 ] } },
{ "type": "Feature", "properties": { "name": "ONEモア", "type": "cafe", "city": "Tokyo", "cafe_cat_1": "Independent", "id_new": 121 }, "geometry": { "type": "Point", "coordinates": [ 139.30539, 35.7740029 ] } },
{ "type": "Feature", "properties": { "name": "スターバックス", "type": "cafe", "city": "Tokyo", "cafe_cat_1": "Independent", "id_new": 122 }, "geometry": { "type": "Point", "coordinates": [ 139.3806525, 35.6619068 ] } },
{ "type": "Feature", "properties": { "name": "スターバックス", "type": "cafe", "city": "Tokyo", "cafe_cat_1": "Independent", "id_new": 123 }, "geometry": { "type": "Point", "coordinates": [ 139.448953100000011, 35.5421559 ] } },
{ "type": "Feature", "properties": { "name": "スターバックス", "type": "cafe", "city": "Tokyo", "cafe_cat_1": "Independent", "id_new": 124 }, "geometry": { "type": "Point", "coordinates": [ 139.4462167, 35.5419128 ] } },
{ "type": "Feature", "properties": { "name": "スターバックス", "type": "cafe", "city": "Tokyo", "cafe_cat_1": "Independent", "id_new": 125 }, "geometry": { "type": "Point", "coordinates": [ 139.445808699999986, 35.544527 ] } },
{ "type": "Feature", "properties": { "name": "スターバックス", "type": "cafe", "city": "Tokyo", "cafe_cat_1": "Independent", "id_new": 126 }, "geometry": { "type": "Point", "coordinates": [ 139.436773100000011, 35.7202936 ] } },
{ "type": "Feature", "properties": { "name": "スターバックス", "type": "cafe", "city": "Tokyo", "cafe_cat_1": "Independent", "id_new": 127 }, "geometry": { "type": "Point", "coordinates": [ 139.364122, 35.7137678 ] } },
{ "type": "Feature", "properties": { "name": "スターバックス", "type": "cafe", "city": "Tokyo", "cafe_cat_1": "Independent", "id_new": 128 }, "geometry": { "type": "Point", "coordinates": [ 139.4132876, 35.6993275 ] } },
{ "type": "Feature", "properties": { "name": "スターバックス", "type": "cafe", "city": "Tokyo", "cafe_cat_1": "Independent", "id_new": 129 }, "geometry": { "type": "Point", "coordinates": [ 139.4135925, 35.6985875 ] } },
{ "type": "Feature", "properties": { "name": "スターバックス", "type": "cafe", "city": "Tokyo", "cafe_cat_1": "Independent", "id_new": 130 }, "geometry": { "type": "Point", "coordinates": [ 139.3280159, 35.7436676 ] } },
{ "type": "Feature", "properties": { "name": "スターバックス", "type": "cafe", "city": "Tokyo", "cafe_cat_1": "Independent", "id_new": 131 }, "geometry": { "type": "Point", "coordinates": [ 139.3390321, 35.6562568 ] } },
{ "type": "Feature", "properties": { "name": "スターバックス", "type": "cafe", "city": "Tokyo", "cafe_cat_1": "Independent", "id_new": 132 }, "geometry": { "type": "Point", "coordinates": [ 139.379477, 35.6139698 ] } },
{ "type": "Feature", "properties": { "name": "スターバックス", "type": "cafe", "city": "Tokyo", "cafe_cat_1": "Independent", "id_new": 133 }, "geometry": { "type": "Point", "coordinates": [ 139.3379908, 35.6546856 ] } },
{ "type": "Feature", "properties": { "name": "タリーズコーヒー", "type": "cafe", "city": "Tokyo", "cafe_cat_1": "Chain", "id_new": 134 }, "geometry": { "type": "Point", "coordinates": [ 139.414116299999989, 35.697458 ] } },
{ "type": "Feature", "properties": { "name": "タリーズコーヒー", "type": "cafe", "city": "Tokyo", "cafe_cat_1": "Chain", "id_new": 135 }, "geometry": { "type": "Point", "coordinates": [ 139.3773018, 35.6141177 ] } },
{ "type": "Feature", "properties": { "name": "54Cafe&Crape", "type": "cafe", "city": "Tokyo", "cafe_cat_1": "Independent", "id_new": 136 }, "geometry": { "type": "Point", "coordinates": [ 139.31364, 35.764434 ] } },
{ "type": "Feature", "properties": { "name": "ドトールコーヒーショップ", "type": "cafe", "city": "Tokyo", "cafe_cat_1": "Chain", "id_new": 137 }, "geometry": { "type": "Point", "coordinates": [ 139.2833503, 35.6420215 ] } },
{ "type": "Feature", "properties": { "name": "ドトールコーヒーショップ", "type": "cafe", "city": "Tokyo", "cafe_cat_1": "Chain", "id_new": 138 }, "geometry": { "type": "Point", "coordinates": [ 139.3948614, 35.6251617 ] } },
{ "type": "Feature", "properties": { "name": "ドトールコーヒーショップ", "type": "cafe", "city": "Tokyo", "cafe_cat_1": "Chain", "id_new": 139 }, "geometry": { "type": "Point", "coordinates": [ 139.3129827, 35.656993 ] } },
{ "type": "Feature", "properties": { "name": "ドトールコーヒーショップ", "type": "cafe", "city": "Tokyo", "cafe_cat_1": "Chain", "id_new": 140 }, "geometry": { "type": "Point", "coordinates": [ 139.371782200000013, 35.6775021 ] } },
{ "type": "Feature", "properties": { "name": "ドトールコーヒーショップ", "type": "cafe", "city": "Tokyo", "cafe_cat_1": "Chain", "id_new": 141 }, "geometry": { "type": "Point", "coordinates": [ 139.4099522, 35.7063844 ] } },
{ "type": "Feature", "properties": { "name": "ドトールコーヒーショップ", "type": "cafe", "city": "Tokyo", "cafe_cat_1": "Chain", "id_new": 142 }, "geometry": { "type": "Point", "coordinates": [ 139.449386800000013, 35.5403857 ] } },
{ "type": "Feature", "properties": { "name": "ドトールコーヒーショップ", "type": "cafe", "city": "Tokyo", "cafe_cat_1": "Chain", "id_new": 143 }, "geometry": { "type": "Point", "coordinates": [ 139.4129825, 35.6620784 ] } },
{ "type": "Feature", "properties": { "name": "ドトールコーヒーショップ", "type": "cafe", "city": "Tokyo", "cafe_cat_1": "Chain", "id_new": 144 }, "geometry": { "type": "Point", "coordinates": [ 139.4464317, 35.697176 ] } },
{ "type": "Feature", "properties": { "name": "ドトールコーヒーショップ", "type": "cafe", "city": "Tokyo", "cafe_cat_1": "Chain", "id_new": 145 }, "geometry": { "type": "Point", "coordinates": [ 139.410145699999987, 35.7484629 ] } },
{ "type": "Feature", "properties": { "name": "ドトールコーヒーショップ", "type": "cafe", "city": "Tokyo", "cafe_cat_1": "Chain", "id_new": 146 }, "geometry": { "type": "Point", "coordinates": [ 139.4242539, 35.7362806 ] } },
{ "type": "Feature", "properties": { "name": "ドトールコーヒーショップ", "type": "cafe", "city": "Tokyo", "cafe_cat_1": "Chain", "id_new": 147 }, "geometry": { "type": "Point", "coordinates": [ 139.448641, 35.6291583 ] } },
{ "type": "Feature", "properties": { "name": "ドトールコーヒーショップ", "type": "cafe", "city": "Tokyo", "cafe_cat_1": "Chain", "id_new": 148 }, "geometry": { "type": "Point", "coordinates": [ 139.447, 35.6521923 ] } },
{ "type": "Feature", "properties": { "name": "ドトールコーヒーショップ", "type": "cafe", "city": "Tokyo", "cafe_cat_1": "Chain", "id_new": 149 }, "geometry": { "type": "Point", "coordinates": [ 139.3584295, 35.7606134 ] } },
{ "type": "Feature", "properties": { "name": "サンマルクカフェ", "type": "cafe", "city": "Tokyo", "cafe_cat_1": "Chain", "id_new": 150 }, "geometry": { "type": "Point", "coordinates": [ 139.424403, 35.7370415 ] } },
{ "type": "Feature", "properties": { "name": "サンマルクカフェ", "type": "cafe", "city": "Tokyo", "cafe_cat_1": "Chain", "id_new": 151 }, "geometry": { "type": "Point", "coordinates": [ 139.2740944, 35.7346033 ] } },
{ "type": "Feature", "properties": { "name": "サンマルクカフェ", "type": "cafe", "city": "Tokyo", "cafe_cat_1": "Chain", "id_new": 152 }, "geometry": { "type": "Point", "coordinates": [ 139.380668, 35.6621535 ] } },
{ "type": "Feature", "properties": { "name": "カフェ・ベローチェ", "type": "cafe", "city": "Tokyo", "cafe_cat_1": "Chain", "id_new": 153 }, "geometry": { "type": "Point", "coordinates": [ 139.336779299999989, 35.6576537 ] } },
{ "type": "Feature", "properties": { "name": "カフェ・ベローチェ", "type": "cafe", "city": "Tokyo", "cafe_cat_1": "Chain", "id_new": 154 }, "geometry": { "type": "Point", "coordinates": [ 139.4488858, 35.5418244 ] } },
{ "type": "Feature", "properties": { "name": "喫茶　木の花", "type": "cafe", "city": "Tokyo", "cafe_cat_1": "Community/Old-fashioned", "id_new": 155 }, "geometry": { "type": "Point", "coordinates": [ 139.2275526, 35.7815353 ] } },
{ "type": "Feature", "properties": { "name": "星乃珈琲店", "type": "cafe", "city": "Tokyo", "cafe_cat_1": "Community/Old-fashioned", "id_new": 156 }, "geometry": { "type": "Point", "coordinates": [ 139.4328298, 35.7221185 ] } },
{ "type": "Feature", "properties": { "name": "ゆば", "type": "cafe", "city": "Tokyo", "cafe_cat_1": "Independent", "id_new": 157 }, "geometry": { "type": "Point", "coordinates": [ 139.2900311, 35.8258238 ] } },
{ "type": "Feature", "properties": { "name": "KOGUMA cafe", "type": "cafe", "city": "Tokyo", "cafe_cat_1": "Independent", "id_new": 158 }, "geometry": { "type": "Point", "coordinates": [ 139.335732, 35.688257 ] } },
{ "type": "Feature", "properties": { "name": "カフェドノエル", "type": "cafe", "city": "Tokyo", "cafe_cat_1": "Community/Old-fashioned", "id_new": 159 }, "geometry": { "type": "Point", "coordinates": [ 139.33723, 35.746239 ] } },
{ "type": "Feature", "properties": { "name": "アルルカン", "type": "cafe", "city": "Tokyo", "cafe_cat_1": "Independent", "id_new": 160 }, "geometry": { "type": "Point", "coordinates": [ 139.325091, 35.749295 ] } },
{ "type": "Feature", "properties": { "name": "PACE", "type": "cafe", "city": "Tokyo", "cafe_cat_1": "Independent", "id_new": 161 }, "geometry": { "type": "Point", "coordinates": [ 139.428104, 35.747421 ] } },
{ "type": "Feature", "properties": { "name": "快活CLUB", "type": "cafe", "city": "Tokyo", "cafe_cat_1": "Independent", "id_new": 162 }, "geometry": { "type": "Point", "coordinates": [ 139.42102, 35.746131 ] } },
{ "type": "Feature", "properties": { "name": "ふじだな", "type": "cafe", "city": "Tokyo", "cafe_cat_1": "Independent", "id_new": 163 }, "geometry": { "type": "Point", "coordinates": [ 139.2454584, 35.640045 ] } },
{ "type": "Feature", "properties": { "name": "Tea Room", "type": "cafe", "city": "Tokyo", "cafe_cat_1": "Independent", "id_new": 164 }, "geometry": { "type": "Point", "coordinates": [ 139.258734, 35.784419 ] } },
{ "type": "Feature", "properties": { "name": "コンブリオ", "type": "cafe", "city": "Tokyo", "cafe_cat_1": "Independent", "id_new": 165 }, "geometry": { "type": "Point", "coordinates": [ 139.2879421, 35.8250571 ] } },
{ "type": "Feature", "properties": { "name": "Rose Town Tea Garden", "type": "cafe", "city": "Tokyo", "cafe_cat_1": "Independent", "id_new": 166 }, "geometry": { "type": "Point", "coordinates": [ 139.2280051, 35.7910528 ] } },
{ "type": "Feature", "properties": { "name": "VELOCE", "type": "cafe", "city": "Tokyo", "cafe_cat_1": "Independent", "id_new": 167 }, "geometry": { "type": "Point", "coordinates": [ 139.411997899999989, 35.6974281 ] } },
{ "type": "Feature", "properties": { "name": "Sta Cafe", "type": "cafe", "city": "Tokyo", "cafe_cat_1": "Independent", "id_new": 168 }, "geometry": { "type": "Point", "coordinates": [ 139.411276, 35.69683 ] } },
{ "type": "Feature", "properties": { "name": "つちのこＣＡＦＥ", "type": "cafe", "city": "Tokyo", "cafe_cat_1": "Independent", "id_new": 169 }, "geometry": { "type": "Point", "coordinates": [ 139.1834153, 35.801449 ] } },
{ "type": "Feature", "properties": { "name": "pain pati", "type": "cafe", "city": "Tokyo", "cafe_cat_1": "Independent", "id_new": 170 }, "geometry": { "type": "Point", "coordinates": [ 139.430078, 35.715775 ] } },
{ "type": "Feature", "properties": { "name": "Refuge", "type": "cafe", "city": "Tokyo", "cafe_cat_1": "Independent", "id_new": 171 }, "geometry": { "type": "Point", "coordinates": [ 139.440457, 35.686612 ] } },
{ "type": "Feature", "properties": { "name": "Neighbors Brunch", "type": "cafe", "city": "Tokyo", "cafe_cat_1": "Independent", "id_new": 172 }, "geometry": { "type": "Point", "coordinates": [ 139.419915, 35.694569 ] } },
{ "type": "Feature", "properties": { "name": "歌カフェ", "type": "cafe", "city": "Tokyo", "cafe_cat_1": "Community/Old-fashioned", "id_new": 173 }, "geometry": { "type": "Point", "coordinates": [ 139.339782, 35.659526 ] } },
{ "type": "Feature", "properties": { "name": "シフォンカフェ ボン・ムー", "type": "cafe", "city": "Tokyo", "cafe_cat_1": "Community/Old-fashioned", "id_new": 174 }, "geometry": { "type": "Point", "coordinates": [ 139.34424150000001, 35.6585758 ] } },
{ "type": "Feature", "properties": { "name": "カフェOVER", "type": "cafe", "city": "Tokyo", "cafe_cat_1": "Community/Old-fashioned", "id_new": 175 }, "geometry": { "type": "Point", "coordinates": [ 139.3357957, 35.6590316 ] } },
{ "type": "Feature", "properties": { "name": "タリーズコーヒー", "type": "cafe", "city": "Tokyo", "cafe_cat_1": "Chain", "id_new": 176 }, "geometry": { "type": "Point", "coordinates": [ 139.327301299999988, 35.632282 ] } },
{ "type": "Feature", "properties": { "name": "ピアノカフェ ショパン", "type": "cafe", "city": "Tokyo", "cafe_cat_1": "Community/Old-fashioned", "id_new": 177 }, "geometry": { "type": "Point", "coordinates": [ 139.4345435, 35.6030168 ] } },
{ "type": "Feature", "properties": { "name": "mp", "type": "cafe", "city": "Tokyo", "cafe_cat_1": "Independent", "id_new": 178 }, "geometry": { "type": "Point", "coordinates": [ 139.346883, 35.663696 ] } },
{ "type": "Feature", "properties": { "name": "高倉町珈琲 武蔵村山店", "type": "cafe", "city": "Tokyo", "cafe_cat_1": "Community/Old-fashioned", "id_new": 179 }, "geometry": { "type": "Point", "coordinates": [ 139.388427900000011, 35.7513639 ] } },
{ "type": "Feature", "properties": { "name": "Cafe 茱茰", "type": "cafe", "city": "Tokyo", "cafe_cat_1": "Independent", "id_new": 180 }, "geometry": { "type": "Point", "coordinates": [ 139.3104674, 35.7543761 ] } },
{ "type": "Feature", "properties": { "name": "ねこカフェ たまねこ", "type": "cafe", "city": "Tokyo", "cafe_cat_1": "Community/Old-fashioned", "id_new": 181 }, "geometry": { "type": "Point", "coordinates": [ 139.430686799999989, 35.6240428 ] } },
{ "type": "Feature", "properties": { "name": "ジロー珈琲 羽村店", "type": "cafe", "city": "Tokyo", "cafe_cat_1": "Community/Old-fashioned", "id_new": 182 }, "geometry": { "type": "Point", "coordinates": [ 139.3047134, 35.7695748 ] } },
{ "type": "Feature", "properties": { "name": "ＣａｆｅＬａＧｉｔａ", "type": "cafe", "city": "Tokyo", "cafe_cat_1": "Independent", "id_new": 183 }, "geometry": { "type": "Point", "coordinates": [ 139.3412657, 35.686848 ] } },
{ "type": "Feature", "properties": { "name": "コメダ珈琲店", "type": "cafe", "city": "Tokyo", "cafe_cat_1": "Chain", "id_new": 184 }, "geometry": { "type": "Point", "coordinates": [ 139.3385647, 35.6584809 ] } },
{ "type": "Feature", "properties": { "name": "ベルダム", "type": "cafe", "city": "Tokyo", "cafe_cat_1": "Independent", "id_new": 185 }, "geometry": { "type": "Point", "coordinates": [ 139.3223619, 35.6561074 ] } },
{ "type": "Feature", "properties": { "name": "cafeひこばえ", "type": "cafe", "city": "Tokyo", "cafe_cat_1": "Independent", "id_new": 186 }, "geometry": { "type": "Point", "coordinates": [ 139.383715200000012, 35.6920693 ] } },
{ "type": "Feature", "properties": { "name": "麦麦", "type": "cafe", "city": "Tokyo", "cafe_cat_1": "Independent", "id_new": 187 }, "geometry": { "type": "Point", "coordinates": [ 139.4124136, 35.6938189 ] } },
{ "type": "Feature", "properties": { "name": null, "type": "cafe", "city": "Tokyo", "cafe_cat_1": "Independent", "id_new": 188 }, "geometry": { "type": "Point", "coordinates": [ 139.4116359, 35.6974637 ] } },
{ "type": "Feature", "properties": { "name": "スターバックス", "type": "cafe", "city": "Tokyo", "cafe_cat_1": "Independent", "id_new": 189 }, "geometry": { "type": "Point", "coordinates": [ 139.4141275, 35.6973608 ] } },
{ "type": "Feature", "properties": { "name": "喫茶 山鳩", "type": "cafe", "city": "Tokyo", "cafe_cat_1": "Community/Old-fashioned", "id_new": 190 }, "geometry": { "type": "Point", "coordinates": [ 139.1293158, 35.8151531 ] } },
{ "type": "Feature", "properties": { "name": "ジロー珈琲", "type": "cafe", "city": "Tokyo", "cafe_cat_1": "Community/Old-fashioned", "id_new": 191 }, "geometry": { "type": "Point", "coordinates": [ 139.36649, 35.704921 ] } },
{ "type": "Feature", "properties": { "name": "ママンカフェ", "type": "cafe", "city": "Tokyo", "cafe_cat_1": "Community/Old-fashioned", "id_new": 192 }, "geometry": { "type": "Point", "coordinates": [ 139.3886052, 35.7005077 ] } },
{ "type": "Feature", "properties": { "name": "青梅ゲストハウス 青龍kibako", "type": "cafe", "city": "Tokyo", "cafe_cat_1": "Independent", "id_new": 193 }, "geometry": { "type": "Point", "coordinates": [ 139.257448900000014, 35.7893308 ] } },
{ "type": "Feature", "properties": { "name": "コメダ珈琲店", "type": "cafe", "city": "Tokyo", "cafe_cat_1": "Chain", "id_new": 194 }, "geometry": { "type": "Point", "coordinates": [ 139.4470307, 35.6997969 ] } },
{ "type": "Feature", "properties": { "name": "Sobataro café", "type": "cafe", "city": "Tokyo", "cafe_cat_1": "Independent", "id_new": 195 }, "geometry": { "type": "Point", "coordinates": [ 139.1534833, 35.7895058 ] } },
{ "type": "Feature", "properties": { "name": "千本屋", "type": "cafe", "city": "Tokyo", "cafe_cat_1": "Independent", "id_new": 196 }, "geometry": { "type": "Point", "coordinates": [ 139.151767, 35.7839159 ] } },
{ "type": "Feature", "properties": { "name": "Teatime", "type": "cafe", "city": "Tokyo", "cafe_cat_1": "Independent", "id_new": 197 }, "geometry": { "type": "Point", "coordinates": [ 139.2563472, 35.6309745 ] } },
{ "type": "Feature", "properties": { "name": "noco Bakery & Cafe", "type": "cafe", "city": "Tokyo", "cafe_cat_1": "Independent", "id_new": 198 }, "geometry": { "type": "Point", "coordinates": [ 139.2115397, 35.798207 ] } },
{ "type": "Feature", "properties": { "name": "武相庵", "type": "cafe", "city": "Tokyo", "cafe_cat_1": "Independent", "id_new": 199 }, "geometry": { "type": "Point", "coordinates": [ 139.4496307, 35.5421391 ] } },
{ "type": "Feature", "properties": { "name": "珈琲生活館", "type": "cafe", "city": "Tokyo", "cafe_cat_1": "Community/Old-fashioned", "id_new": 200 }, "geometry": { "type": "Point", "coordinates": [ 139.329977500000012, 35.6728223 ] } },
{ "type": "Feature", "properties": { "name": "MozekSol", "type": "cafe", "city": "Tokyo", "cafe_cat_1": "Independent", "id_new": 201 }, "geometry": { "type": "Point", "coordinates": [ 139.3288068, 35.6735719 ] } },
{ "type": "Feature", "properties": { "name": "コメダ珈琲店", "type": "cafe", "city": "Tokyo", "cafe_cat_1": "Chain", "id_new": 202 }, "geometry": { "type": "Point", "coordinates": [ 139.314921, 35.6780135 ] } },
{ "type": "Feature", "properties": { "name": "おはしDining en", "type": "cafe", "city": "Tokyo", "cafe_cat_1": "Independent", "id_new": 203 }, "geometry": { "type": "Point", "coordinates": [ 139.3305466, 35.6349687 ] } },
{ "type": "Feature", "properties": { "name": "スターバックス", "type": "cafe", "city": "Tokyo", "cafe_cat_1": "Independent", "id_new": 204 }, "geometry": { "type": "Point", "coordinates": [ 139.3875413, 35.7510785 ] } },
{ "type": "Feature", "properties": { "name": "Port Okutama", "type": "cafe", "city": "Tokyo", "cafe_cat_1": "Independent", "id_new": 205 }, "geometry": { "type": "Point", "coordinates": [ 139.096718900000013, 35.8091498 ] } },
{ "type": "Feature", "properties": { "name": "Acorn Cafe", "type": "cafe", "city": "Tokyo", "cafe_cat_1": "Independent", "id_new": 206 }, "geometry": { "type": "Point", "coordinates": [ 139.377713699999987, 35.6163469 ] } },
{ "type": "Feature", "properties": { "name": "倉式珈琲店", "type": "cafe", "city": "Tokyo", "cafe_cat_1": "Community/Old-fashioned", "id_new": 207 }, "geometry": { "type": "Point", "coordinates": [ 139.4497452, 35.5414251 ] } },
{ "type": "Feature", "properties": { "name": null, "type": "cafe", "city": "Tokyo", "cafe_cat_1": "Independent", "id_new": 208 }, "geometry": { "type": "Point", "coordinates": [ 139.3946922, 35.7144835 ] } },
{ "type": "Feature", "properties": { "name": "高倉町咖啡", "type": "cafe", "city": "Tokyo", "cafe_cat_1": "Independent", "id_new": 209 }, "geometry": { "type": "Point", "coordinates": [ 139.4470637, 35.6963826 ] } },
{ "type": "Feature", "properties": { "name": "Shirucafe", "type": "cafe", "city": "Tokyo", "cafe_cat_1": "Independent", "id_new": 210 }, "geometry": { "type": "Point", "coordinates": [ 139.4470143, 35.6961382 ] } },
{ "type": "Feature", "properties": { "name": "ドトール珈琲農園", "type": "cafe", "city": "Tokyo", "cafe_cat_1": "Chain", "id_new": 211 }, "geometry": { "type": "Point", "coordinates": [ 139.4305602, 35.5594469 ] } },
{ "type": "Feature", "properties": { "name": "かふぇ一番艦", "type": "cafe", "city": "Tokyo", "cafe_cat_1": "Independent", "id_new": 212 }, "geometry": { "type": "Point", "coordinates": [ 139.4080356, 35.6764147 ] } },
{ "type": "Feature", "properties": { "name": null, "type": "cafe", "city": "Tokyo", "cafe_cat_1": "Independent", "id_new": 213 }, "geometry": { "type": "Point", "coordinates": [ 139.402105799999987, 35.6496475 ] } },
{ "type": "Feature", "properties": { "name": "ノーマライゼーションカフェ&ビストロ", "type": "cafe", "city": "Tokyo", "cafe_cat_1": "Community/Old-fashioned", "id_new": 214 }, "geometry": { "type": "Point", "coordinates": [ 139.436032899999987, 35.5688239 ] } },
{ "type": "Feature", "properties": { "name": "Cafe&Diner88", "type": "cafe", "city": "Tokyo", "cafe_cat_1": "Independent", "id_new": 215 }, "geometry": { "type": "Point", "coordinates": [ 139.435983599999986, 35.5672181 ] } },
{ "type": "Feature", "properties": { "name": "Beck's Coffee Shop", "type": "cafe", "city": "Tokyo", "cafe_cat_1": "Independent", "id_new": 216 }, "geometry": { "type": "Point", "coordinates": [ 139.3386864, 35.6555466 ] } },
{ "type": "Feature", "properties": { "name": "珈琲倶楽部 田", "type": "cafe", "city": "Tokyo", "cafe_cat_1": "Community/Old-fashioned", "id_new": 217 }, "geometry": { "type": "Point", "coordinates": [ 139.3397776, 35.659514 ] } },
{ "type": "Feature", "properties": { "name": "時々カフェ「南の魔女の家」", "type": "cafe", "city": "Tokyo", "cafe_cat_1": "Community/Old-fashioned", "id_new": 218 }, "geometry": { "type": "Point", "coordinates": [ 139.332213, 35.6443873 ] } },
{ "type": "Feature", "properties": { "name": "美園珈琲店", "type": "cafe", "city": "Tokyo", "cafe_cat_1": "Community/Old-fashioned", "id_new": 219 }, "geometry": { "type": "Point", "coordinates": [ 139.257554699999986, 35.6691585 ] } },
{ "type": "Feature", "properties": { "name": "馬天使", "type": "cafe", "city": "Tokyo", "cafe_cat_1": "Independent", "id_new": 220 }, "geometry": { "type": "Point", "coordinates": [ 139.3166364, 35.6704679 ] } },
{ "type": "Feature", "properties": { "name": "ドトールコーヒーショップ", "type": "cafe", "city": "Tokyo", "cafe_cat_1": "Chain", "id_new": 221 }, "geometry": { "type": "Point", "coordinates": [ 139.354643399999986, 35.6446342 ] } },
{ "type": "Feature", "properties": { "name": "アン", "type": "cafe", "city": "Tokyo", "cafe_cat_1": "Independent", "id_new": 222 }, "geometry": { "type": "Point", "coordinates": [ 139.3070253, 35.6427037 ] } },
{ "type": "Feature", "properties": { "name": "Beck's Coffee Shop", "type": "cafe", "city": "Tokyo", "cafe_cat_1": "Independent", "id_new": 223 }, "geometry": { "type": "Point", "coordinates": [ 139.3282156, 35.7422638 ] } },
{ "type": "Feature", "properties": { "name": "ジャックインザボックス", "type": "cafe", "city": "Tokyo", "cafe_cat_1": "Independent", "id_new": 224 }, "geometry": { "type": "Point", "coordinates": [ 139.443258, 35.6828521 ] } },
{ "type": "Feature", "properties": { "name": "KEY'S CAFÉ", "type": "cafe", "city": "Tokyo", "cafe_cat_1": "Independent", "id_new": 225 }, "geometry": { "type": "Point", "coordinates": [ 139.4388808, 35.546946 ] } },
{ "type": "Feature", "properties": { "name": "B Factory", "type": "cafe", "city": "Tokyo", "cafe_cat_1": "Independent", "id_new": 226 }, "geometry": { "type": "Point", "coordinates": [ 139.4270568, 35.5725001 ] } },
{ "type": "Feature", "properties": { "name": "ドッグカフェ プティシアン", "type": "cafe", "city": "Tokyo", "cafe_cat_1": "Community/Old-fashioned", "id_new": 227 }, "geometry": { "type": "Point", "coordinates": [ 139.4458613, 35.5625879 ] } },
{ "type": "Feature", "properties": { "name": "CAFE KATSUO", "type": "cafe", "city": "Tokyo", "cafe_cat_1": "Independent", "id_new": 228 }, "geometry": { "type": "Point", "coordinates": [ 139.445223199999987, 35.5458437 ] } },
{ "type": "Feature", "properties": { "name": "Twins crepe", "type": "cafe", "city": "Tokyo", "cafe_cat_1": "Independent", "id_new": 229 }, "geometry": { "type": "Point", "coordinates": [ 139.3140728, 35.6568918 ] } },
{ "type": "Feature", "properties": { "name": null, "type": "cafe", "city": "Tokyo", "cafe_cat_1": "Independent", "id_new": 230 }, "geometry": { "type": "Point", "coordinates": [ 139.438604, 35.5983309 ] } },
{ "type": "Feature", "properties": { "name": "星乃珈琲店", "type": "cafe", "city": "Tokyo", "cafe_cat_1": "Community/Old-fashioned", "id_new": 231 }, "geometry": { "type": "Point", "coordinates": [ 139.444896, 35.5445935 ] } },
{ "type": "Feature", "properties": { "name": "くつキッちん", "type": "cafe", "city": "Tokyo", "cafe_cat_1": "Independent", "id_new": 232 }, "geometry": { "type": "Point", "coordinates": [ 139.2743442, 35.7895239 ] } },
{ "type": "Feature", "properties": { "name": "草", "type": "cafe", "city": "Tokyo", "cafe_cat_1": "Independent", "id_new": 233 }, "geometry": { "type": "Point", "coordinates": [ 139.2716017, 35.788471 ] } },
{ "type": "Feature", "properties": { "name": "東京裏山ベース", "type": "cafe", "city": "Tokyo", "cafe_cat_1": "Independent", "id_new": 234 }, "geometry": { "type": "Point", "coordinates": [ 139.228194300000013, 35.7313275 ] } },
{ "type": "Feature", "properties": { "name": "やまねこ亭", "type": "cafe", "city": "Tokyo", "cafe_cat_1": "Independent", "id_new": 235 }, "geometry": { "type": "Point", "coordinates": [ 139.2284482, 35.7313491 ] } },
{ "type": "Feature", "properties": { "name": "WOQ in Marylou", "type": "cafe", "city": "Tokyo", "cafe_cat_1": "Independent", "id_new": 236 }, "geometry": { "type": "Point", "coordinates": [ 139.2608625, 35.7907531 ] } },
{ "type": "Feature", "properties": { "name": "クレアーテカフェアキ", "type": "cafe", "city": "Tokyo", "cafe_cat_1": "Community/Old-fashioned", "id_new": 237 }, "geometry": { "type": "Point", "coordinates": [ 139.2610062, 35.7890501 ] } },
{ "type": "Feature", "properties": { "name": "LAMP COFFEE", "type": "cafe", "city": "Tokyo", "cafe_cat_1": "Independent", "id_new": 238 }, "geometry": { "type": "Point", "coordinates": [ 139.340559500000012, 35.6534621 ] } },
{ "type": "Feature", "properties": { "name": "つぶあんカフェ", "type": "cafe", "city": "Tokyo", "cafe_cat_1": "Community/Old-fashioned", "id_new": 239 }, "geometry": { "type": "Point", "coordinates": [ 139.257949700000012, 35.7898747 ] } },
{ "type": "Feature", "properties": { "name": "MAY.DELICA&BAR", "type": "cafe", "city": "Tokyo", "cafe_cat_1": "Independent", "id_new": 240 }, "geometry": { "type": "Point", "coordinates": [ 139.3789123, 35.607594 ] } },
{ "type": "Feature", "properties": { "name": "ouchi cafe", "type": "cafe", "city": "Tokyo", "cafe_cat_1": "Independent", "id_new": 241 }, "geometry": { "type": "Point", "coordinates": [ 139.3992423, 35.6229728 ] } },
{ "type": "Feature", "properties": { "name": "柚子木庵", "type": "cafe", "city": "Tokyo", "cafe_cat_1": "Independent", "id_new": 242 }, "geometry": { "type": "Point", "coordinates": [ 139.390062300000011, 35.613092 ] } },
{ "type": "Feature", "properties": { "name": "atelier BASEL", "type": "cafe", "city": "Tokyo", "cafe_cat_1": "Independent", "id_new": 243 }, "geometry": { "type": "Point", "coordinates": [ 139.3759929, 35.623058 ] } },
{ "type": "Feature", "properties": { "name": "mokacafe", "type": "cafe", "city": "Tokyo", "cafe_cat_1": "Independent", "id_new": 244 }, "geometry": { "type": "Point", "coordinates": [ 139.3995782, 35.6261221 ] } },
{ "type": "Feature", "properties": { "name": "Cafe Snooze", "type": "cafe", "city": "Tokyo", "cafe_cat_1": "Independent", "id_new": 245 }, "geometry": { "type": "Point", "coordinates": [ 139.3285232, 35.6523918 ] } },
{ "type": "Feature", "properties": { "name": "Ｂｒｅｅｚｅ風", "type": "cafe", "city": "Tokyo", "cafe_cat_1": "Independent", "id_new": 246 }, "geometry": { "type": "Point", "coordinates": [ 139.2820189, 35.7803288 ] } },
{ "type": "Feature", "properties": { "name": "ビートスイートクレープ", "type": "cafe", "city": "Tokyo", "cafe_cat_1": "Independent", "id_new": 247 }, "geometry": { "type": "Point", "coordinates": [ 139.337940300000014, 35.659381 ] } },
{ "type": "Feature", "properties": { "name": "南国カフェ シエスタ", "type": "cafe", "city": "Tokyo", "cafe_cat_1": "Community/Old-fashioned", "id_new": 248 }, "geometry": { "type": "Point", "coordinates": [ 139.299194300000011, 35.7869669 ] } },
{ "type": "Feature", "properties": { "name": "カフェ アンリ・マティス", "type": "cafe", "city": "Tokyo", "cafe_cat_1": "Community/Old-fashioned", "id_new": 249 }, "geometry": { "type": "Point", "coordinates": [ 139.340672500000011, 35.6604119 ] } },
{ "type": "Feature", "properties": { "name": "Akameru", "type": "cafe", "city": "Tokyo", "cafe_cat_1": "Independent", "id_new": 250 }, "geometry": { "type": "Point", "coordinates": [ 139.3394557, 35.6628162 ] } },
{ "type": "Feature", "properties": { "name": "カフェHaruKiyo", "type": "cafe", "city": "Tokyo", "cafe_cat_1": "Community/Old-fashioned", "id_new": 251 }, "geometry": { "type": "Point", "coordinates": [ 139.2909725, 35.8027722 ] } },
{ "type": "Feature", "properties": { "name": "カフェモハべ", "type": "cafe", "city": "Tokyo", "cafe_cat_1": "Community/Old-fashioned", "id_new": 252 }, "geometry": { "type": "Point", "coordinates": [ 139.28538, 35.7278605 ] } },
{ "type": "Feature", "properties": { "name": null, "type": "cafe", "city": "Tokyo", "cafe_cat_1": "Independent", "id_new": 253 }, "geometry": { "type": "Point", "coordinates": [ 139.4123448, 35.7048165 ] } },
{ "type": "Feature", "properties": { "name": "長澤珈琲", "type": "cafe", "city": "Tokyo", "cafe_cat_1": "Community/Old-fashioned", "id_new": 254 }, "geometry": { "type": "Point", "coordinates": [ 139.2930625, 35.7960667 ] } },
{ "type": "Feature", "properties": { "name": "ティーローズ", "type": "cafe", "city": "Tokyo", "cafe_cat_1": "Independent", "id_new": 255 }, "geometry": { "type": "Point", "coordinates": [ 139.2839571, 35.6402552 ] } },
{ "type": "Feature", "properties": { "name": "アロハイーリオ", "type": "cafe", "city": "Tokyo", "cafe_cat_1": "Independent", "id_new": 256 }, "geometry": { "type": "Point", "coordinates": [ 139.4322771, 35.5632424 ] } },
{ "type": "Feature", "properties": { "name": "スターバックス", "type": "cafe", "city": "Tokyo", "cafe_cat_1": "Independent", "id_new": 257 }, "geometry": { "type": "Point", "coordinates": [ 139.3467857, 35.6837813 ] } },
{ "type": "Feature", "properties": { "name": "ミュクレバーコア", "type": "cafe", "city": "Tokyo", "cafe_cat_1": "Independent", "id_new": 258 }, "geometry": { "type": "Point", "coordinates": [ 139.339245799999986, 35.6594506 ] } },
{ "type": "Feature", "properties": { "name": "タリーズコーヒー", "type": "cafe", "city": "Tokyo", "cafe_cat_1": "Chain", "id_new": 259 }, "geometry": { "type": "Point", "coordinates": [ 139.4450755, 35.5434174 ] } },
{ "type": "Feature", "properties": { "name": "Coffee Stand 88＋", "type": "cafe", "city": "Tokyo", "cafe_cat_1": "Independent", "id_new": 260 }, "geometry": { "type": "Point", "coordinates": [ 139.4394916, 35.5680086 ] } },
{ "type": "Feature", "properties": { "name": "The Lounge", "type": "cafe", "city": "Tokyo", "cafe_cat_1": "Independent", "id_new": 261 }, "geometry": { "type": "Point", "coordinates": [ 139.3400258, 35.6577378 ] } },
{ "type": "Feature", "properties": { "name": "ルノアール", "type": "cafe", "city": "Tokyo", "cafe_cat_1": "Independent", "id_new": 262 }, "geometry": { "type": "Point", "coordinates": [ 139.338046600000013, 35.6570875 ] } },
{ "type": "Feature", "properties": { "name": "金照庵", "type": "cafe", "city": "Tokyo", "cafe_cat_1": "Independent", "id_new": 263 }, "geometry": { "type": "Point", "coordinates": [ 139.3223893, 35.6562081 ] } },
{ "type": "Feature", "properties": { "name": "たねカフェ", "type": "cafe", "city": "Tokyo", "cafe_cat_1": "Community/Old-fashioned", "id_new": 264 }, "geometry": { "type": "Point", "coordinates": [ 139.3302382, 35.6608305 ] } },
{ "type": "Feature", "properties": { "name": "Gallery&Cafe ヤスタケ", "type": "cafe", "city": "Tokyo", "cafe_cat_1": "Independent", "id_new": 265 }, "geometry": { "type": "Point", "coordinates": [ 139.3268947, 35.6612316 ] } },
{ "type": "Feature", "properties": { "name": "Cafe rin", "type": "cafe", "city": "Tokyo", "cafe_cat_1": "Independent", "id_new": 266 }, "geometry": { "type": "Point", "coordinates": [ 139.3335228, 35.661527 ] } },
{ "type": "Feature", "properties": { "name": "café de la poste", "type": "cafe", "city": "Tokyo", "cafe_cat_1": "Independent", "id_new": 267 }, "geometry": { "type": "Point", "coordinates": [ 139.3328171, 35.66145 ] } },
{ "type": "Feature", "properties": { "name": "ファミカフェ　Deep Forest", "type": "cafe", "city": "Tokyo", "cafe_cat_1": "Community/Old-fashioned", "id_new": 268 }, "geometry": { "type": "Point", "coordinates": [ 139.3264517, 35.6624939 ] } },
{ "type": "Feature", "properties": { "name": "コメダ珈琲店聖蹟桜ヶ丘店", "type": "cafe", "city": "Tokyo", "cafe_cat_1": "Chain", "id_new": 269 }, "geometry": { "type": "Point", "coordinates": [ 139.447136, 35.6521327 ] } },
{ "type": "Feature", "properties": { "name": "カフェ シュエット", "type": "cafe", "city": "Tokyo", "cafe_cat_1": "Community/Old-fashioned", "id_new": 270 }, "geometry": { "type": "Point", "coordinates": [ 139.350861900000012, 35.6639929 ] } },
{ "type": "Feature", "properties": { "name": "まちだcafé つどい", "type": "cafe", "city": "Tokyo", "cafe_cat_1": "Independent", "id_new": 271 }, "geometry": { "type": "Point", "coordinates": [ 139.405776300000014, 35.5845036 ] } },
{ "type": "Feature", "properties": { "name": "Dog Cafe Uru", "type": "cafe", "city": "Tokyo", "cafe_cat_1": "Independent", "id_new": 272 }, "geometry": { "type": "Point", "coordinates": [ 139.4266091, 35.5559972 ] } },
{ "type": "Feature", "properties": { "name": "44 APARTMENT", "type": "cafe", "city": "Tokyo", "cafe_cat_1": "Independent", "id_new": 273 }, "geometry": { "type": "Point", "coordinates": [ 139.447945, 35.5420287 ] } },
{ "type": "Feature", "properties": { "name": "上島珈琲店", "type": "cafe", "city": "Tokyo", "cafe_cat_1": "Chain", "id_new": 274 }, "geometry": { "type": "Point", "coordinates": [ 139.3800019, 35.6141501 ] } },
{ "type": "Feature", "properties": { "name": "LinNa HEALTHY LIFESTYLE", "type": "cafe", "city": "Tokyo", "cafe_cat_1": "Independent", "id_new": 275 }, "geometry": { "type": "Point", "coordinates": [ 139.3848203, 35.6134233 ] } },
{ "type": "Feature", "properties": { "name": "Cafe Gallery BOJO", "type": "cafe", "city": "Tokyo", "cafe_cat_1": "Independent", "id_new": 276 }, "geometry": { "type": "Point", "coordinates": [ 139.3855886, 35.6072071 ] } },
{ "type": "Feature", "properties": { "name": "PRONTO", "type": "cafe", "city": "Tokyo", "cafe_cat_1": "Independent", "id_new": 277 }, "geometry": { "type": "Point", "coordinates": [ 139.4453872, 35.5423757 ] } },
{ "type": "Feature", "properties": { "name": "スターバックス", "type": "cafe", "city": "Tokyo", "cafe_cat_1": "Independent", "id_new": 278 }, "geometry": { "type": "Point", "coordinates": [ 139.446934, 35.6993797 ] } },
{ "type": "Feature", "properties": { "name": "タリーズコーヒー", "type": "cafe", "city": "Tokyo", "cafe_cat_1": "Chain", "id_new": 279 }, "geometry": { "type": "Point", "coordinates": [ 139.4457922, 35.5422762 ] } },
{ "type": "Feature", "properties": { "name": "娑羅の木", "type": "cafe", "city": "Tokyo", "cafe_cat_1": "Independent", "id_new": 280 }, "geometry": { "type": "Point", "coordinates": [ 139.3311814, 35.6059965 ] } },
{ "type": "Feature", "properties": { "name": "高岡珈琲店", "type": "cafe", "city": "Tokyo", "cafe_cat_1": "Community/Old-fashioned", "id_new": 281 }, "geometry": { "type": "Point", "coordinates": [ 139.4310257, 35.7476791 ] } },
{ "type": "Feature", "properties": { "name": "茶楽", "type": "cafe", "city": "Tokyo", "cafe_cat_1": "Independent", "id_new": 282 }, "geometry": { "type": "Point", "coordinates": [ 139.1817308, 35.8010074 ] } },
{ "type": "Feature", "properties": { "name": "CAFE CHOU CHOU", "type": "cafe", "city": "Tokyo", "cafe_cat_1": "Independent", "id_new": 283 }, "geometry": { "type": "Point", "coordinates": [ 139.271352799999988, 35.6385944 ] } },
{ "type": "Feature", "properties": { "name": "My Home // Coffee, Bakes, Beer", "type": "cafe", "city": "Tokyo", "cafe_cat_1": "Independent", "id_new": 284 }, "geometry": { "type": "Point", "coordinates": [ 139.2861868, 35.6454905 ] } },
{ "type": "Feature", "properties": { "name": "Dia.Coffee", "type": "cafe", "city": "Tokyo", "cafe_cat_1": "Independent", "id_new": 285 }, "geometry": { "type": "Point", "coordinates": [ 139.3439926, 35.6594077 ] } },
{ "type": "Feature", "properties": { "name": "喫茶シャトル", "type": "cafe", "city": "Tokyo", "cafe_cat_1": "Community/Old-fashioned", "id_new": 286 }, "geometry": { "type": "Point", "coordinates": [ 139.2663378, 35.6747903 ] } },
{ "type": "Feature", "properties": { "name": null, "type": "cafe", "city": "Tokyo", "cafe_cat_1": "Independent", "id_new": 287 }, "geometry": { "type": "Point", "coordinates": [ 139.2902282, 35.6830141 ] } },
{ "type": "Feature", "properties": { "name": "Cafe Hana", "type": "cafe", "city": "Tokyo", "cafe_cat_1": "Independent", "id_new": 288 }, "geometry": { "type": "Point", "coordinates": [ 139.420512699999989, 35.6594034 ] } },
{ "type": "Feature", "properties": { "name": "コメダ珈琲店", "type": "cafe", "city": "Tokyo", "cafe_cat_1": "Chain", "id_new": 289 }, "geometry": { "type": "Point", "coordinates": [ 139.4455814, 35.5450643 ] } },
{ "type": "Feature", "properties": { "name": "コメダ珈琲店", "type": "cafe", "city": "Tokyo", "cafe_cat_1": "Chain", "id_new": 290 }, "geometry": { "type": "Point", "coordinates": [ 139.2878122, 35.7292106 ] } },
{ "type": "Feature", "properties": { "name": "Bring Circular Takao", "type": "cafe", "city": "Tokyo", "cafe_cat_1": "Independent", "id_new": 291 }, "geometry": { "type": "Point", "coordinates": [ 139.2684485, 35.6315074 ] } },
{ "type": "Feature", "properties": { "name": "cafe espoir", "type": "cafe", "city": "Tokyo", "cafe_cat_1": "Independent", "id_new": 292 }, "geometry": { "type": "Point", "coordinates": [ 139.2571183, 35.790107 ] } },
{ "type": "Feature", "properties": { "name": "BECK'S COFFEE SHOP", "type": "cafe", "city": "Tokyo", "cafe_cat_1": "Independent", "id_new": 293 }, "geometry": { "type": "Point", "coordinates": [ 139.4458222, 35.5417932 ] } },
{ "type": "Feature", "properties": { "name": "POUND", "type": "cafe", "city": "Tokyo", "cafe_cat_1": "Independent", "id_new": 294 }, "geometry": { "type": "Point", "coordinates": [ 139.2048126, 35.7271351 ] } },
{ "type": "Feature", "properties": { "name": "niconico cafe 国立富士見台店", "type": "cafe", "city": "Tokyo", "cafe_cat_1": "Independent", "id_new": 295 }, "geometry": { "type": "Point", "coordinates": [ 139.4474164, 35.683419 ] } },
{ "type": "Feature", "properties": { "name": "珈琲実験室", "type": "cafe", "city": "Tokyo", "cafe_cat_1": "Community/Old-fashioned", "id_new": 296 }, "geometry": { "type": "Point", "coordinates": [ 139.4464405, 35.697278 ] } },
{ "type": "Feature", "properties": { "name": "ひなたcafe", "type": "cafe", "city": "Tokyo", "cafe_cat_1": "Independent", "id_new": 297 }, "geometry": { "type": "Point", "coordinates": [ 139.2612441, 35.6733891 ] } },
{ "type": "Feature", "properties": { "name": "雫", "type": "cafe", "city": "Tokyo", "cafe_cat_1": "Independent", "id_new": 298 }, "geometry": { "type": "Point", "coordinates": [ 139.2898644, 35.6855291 ] } },
{ "type": "Feature", "properties": { "name": null, "type": "cafe", "city": "Tokyo", "cafe_cat_1": "Independent", "id_new": 299 }, "geometry": { "type": "Point", "coordinates": [ 139.3064795, 35.6838367 ] } },
{ "type": "Feature", "properties": { "name": "スターバックス", "type": "cafe", "city": "Tokyo", "cafe_cat_1": "Independent", "id_new": 300 }, "geometry": { "type": "Point", "coordinates": [ 139.446915499999989, 35.5425772 ] } },
{ "type": "Feature", "properties": { "name": "凛café", "type": "cafe", "city": "Tokyo", "cafe_cat_1": "Independent", "id_new": 301 }, "geometry": { "type": "Point", "coordinates": [ 139.3153786, 35.7943373 ] } },
{ "type": "Feature", "properties": { "name": "よりまし堂", "type": "cafe", "city": "Tokyo", "cafe_cat_1": "Independent", "id_new": 302 }, "geometry": { "type": "Point", "coordinates": [ 139.3926909, 35.6540878 ] } },
{ "type": "Feature", "properties": { "name": "季まま亭", "type": "cafe", "city": "Tokyo", "cafe_cat_1": "Independent", "id_new": 303 }, "geometry": { "type": "Point", "coordinates": [ 139.363812, 34.7794509 ] } },
{ "type": "Feature", "properties": { "name": "御神火茶屋", "type": "cafe", "city": "Tokyo", "cafe_cat_1": "Independent", "id_new": 304 }, "geometry": { "type": "Point", "coordinates": [ 139.3797492, 34.7376327 ] } },
{ "type": "Feature", "properties": { "name": "松泉堂", "type": "cafe", "city": "Tokyo", "cafe_cat_1": "Independent", "id_new": 305 }, "geometry": { "type": "Point", "coordinates": [ 139.439777, 34.68738 ] } },
{ "type": "Feature", "properties": { "name": "らイブ", "type": "cafe", "city": "Tokyo", "cafe_cat_1": "Independent", "id_new": 306 }, "geometry": { "type": "Point", "coordinates": [ 139.3571277, 34.753696 ] } },
{ "type": "Feature", "properties": { "name": "Cafe Island", "type": "cafe", "city": "Tokyo", "cafe_cat_1": "Independent", "id_new": 307 }, "geometry": { "type": "Point", "coordinates": [ 139.3547407, 34.74919 ] } },
{ "type": "Feature", "properties": { "name": null, "type": "cafe", "city": "Tokyo", "cafe_cat_1": "Independent", "id_new": 308 }, "geometry": { "type": "Point", "coordinates": [ 139.3580294, 34.763972 ] } },
{ "type": "Feature", "properties": { "name": "きらく小屋", "type": "cafe", "city": "Tokyo", "cafe_cat_1": "Independent", "id_new": 309 }, "geometry": { "type": "Point", "coordinates": [ 139.3580374, 34.7639656 ] } },
{ "type": "Feature", "properties": { "name": "島cafe", "type": "cafe", "city": "Tokyo", "cafe_cat_1": "Independent", "id_new": 310 }, "geometry": { "type": "Point", "coordinates": [ 139.2153333, 34.3283055 ] } },
{ "type": "Feature", "properties": { "name": "茶房かおり", "type": "cafe", "city": "Tokyo", "cafe_cat_1": "Independent", "id_new": 311 }, "geometry": { "type": "Point", "coordinates": [ 139.278686599999986, 34.5290202 ] } },
{ "type": "Feature", "properties": { "name": "NINZ COFFEE", "type": "cafe", "city": "Tokyo", "cafe_cat_1": "Independent", "id_new": 312 }, "geometry": { "type": "Point", "coordinates": [ 139.2208683, 34.3263762 ] } },
{ "type": "Feature", "properties": { "name": "みんなの別荘　ファミリア", "type": "cafe", "city": "Tokyo", "cafe_cat_1": "Independent", "id_new": 313 }, "geometry": { "type": "Point", "coordinates": [ 139.135329899999988, 34.2050733 ] } },
{ "type": "Feature", "properties": { "name": "COZY CAFE", "type": "cafe", "city": "Tokyo", "cafe_cat_1": "Independent", "id_new": 314 }, "geometry": { "type": "Point", "coordinates": [ 139.1342162, 34.2067425 ] } },
{ "type": "Feature", "properties": { "name": "OWL", "type": "cafe", "city": "Tokyo", "cafe_cat_1": "Independent", "id_new": 315 }, "geometry": { "type": "Point", "coordinates": [ 139.1346829, 34.2071773 ] } },
{ "type": "Feature", "properties": { "name": "スターバックス", "type": "cafe", "city": "Tokyo", "cafe_cat_1": "Independent", "id_new": 316 }, "geometry": { "type": "Point", "coordinates": [ 139.7390476, 35.684236 ] } },
{ "type": "Feature", "properties": { "name": null, "type": "cafe", "city": "Tokyo", "cafe_cat_1": "Independent", "id_new": 317 }, "geometry": { "type": "Point", "coordinates": [ 139.7438874, 35.6815144 ] } },
{ "type": "Feature", "properties": { "name": "珈琲館", "type": "cafe", "city": "Tokyo", "cafe_cat_1": "Chain", "id_new": 318 }, "geometry": { "type": "Point", "coordinates": [ 139.7196284, 35.7482853 ] } },
{ "type": "Feature", "properties": { "name": "スターバックス", "type": "cafe", "city": "Tokyo", "cafe_cat_1": "Independent", "id_new": 319 }, "geometry": { "type": "Point", "coordinates": [ 139.742445800000013, 35.7018499 ] } },
{ "type": "Feature", "properties": { "name": "ドトールコーヒーショップ", "type": "cafe", "city": "Tokyo", "cafe_cat_1": "Chain", "id_new": 320 }, "geometry": { "type": "Point", "coordinates": [ 139.698122899999987, 35.6812934 ] } },
{ "type": "Feature", "properties": { "name": "自家焙煎珈琲豆 「ルンバミーア」", "type": "cafe", "city": "Tokyo", "cafe_cat_1": "Community/Old-fashioned", "id_new": 321 }, "geometry": { "type": "Point", "coordinates": [ 139.7124612, 35.6749577 ] } },
{ "type": "Feature", "properties": { "name": "エクセルシオール", "type": "cafe", "city": "Tokyo", "cafe_cat_1": "Independent", "id_new": 322 }, "geometry": { "type": "Point", "coordinates": [ 139.7486585, 35.6439454 ] } },
{ "type": "Feature", "properties": { "name": "コーヒー軽食チェスカ", "type": "cafe", "city": "Tokyo", "cafe_cat_1": "Independent", "id_new": 323 }, "geometry": { "type": "Point", "coordinates": [ 139.740929200000011, 35.5541666 ] } },
{ "type": "Feature", "properties": { "name": "カフェ・ベローチェ", "type": "cafe", "city": "Tokyo", "cafe_cat_1": "Chain", "id_new": 324 }, "geometry": { "type": "Point", "coordinates": [ 139.740571100000011, 35.5525352 ] } },
{ "type": "Feature", "properties": { "name": "attic room YASUKUNI-GAIEN/cafe&dining", "type": "cafe", "city": "Tokyo", "cafe_cat_1": "Independent", "id_new": 325 }, "geometry": { "type": "Point", "coordinates": [ 139.74549, 35.6947455 ] } },
{ "type": "Feature", "properties": { "name": "CAT'S CRADLE", "type": "cafe", "city": "Tokyo", "cafe_cat_1": "Independent", "id_new": 326 }, "geometry": { "type": "Point", "coordinates": [ 139.7222682, 35.708607 ] } },
{ "type": "Feature", "properties": { "name": "ビレン", "type": "cafe", "city": "Tokyo", "cafe_cat_1": "Independent", "id_new": 327 }, "geometry": { "type": "Point", "coordinates": [ 139.722556200000014, 35.7085991 ] } },
{ "type": "Feature", "properties": { "name": "スターバックス", "type": "cafe", "city": "Tokyo", "cafe_cat_1": "Independent", "id_new": 328 }, "geometry": { "type": "Point", "coordinates": [ 139.6500268, 35.6690479 ] } },
{ "type": "Feature", "properties": { "name": null, "type": "cafe", "city": "Tokyo", "cafe_cat_1": "Independent", "id_new": 329 }, "geometry": { "type": "Point", "coordinates": [ 139.8118264, 35.7444824 ] } },
{ "type": "Feature", "properties": { "name": "芋甚", "type": "cafe", "city": "Tokyo", "cafe_cat_1": "Independent", "id_new": 330 }, "geometry": { "type": "Point", "coordinates": [ 139.7636211, 35.7202072 ] } },
{ "type": "Feature", "properties": { "name": "喫茶・ギャラリー　りんごや", "type": "cafe", "city": "Tokyo", "cafe_cat_1": "Community/Old-fashioned", "id_new": 331 }, "geometry": { "type": "Point", "coordinates": [ 139.7646513, 35.7196021 ] } },
{ "type": "Feature", "properties": { "name": "NaCaSa", "type": "cafe", "city": "Tokyo", "cafe_cat_1": "Independent", "id_new": 332 }, "geometry": { "type": "Point", "coordinates": [ 139.7648584, 35.7197603 ] } },
{ "type": "Feature", "properties": { "name": "カフェ・コパン", "type": "cafe", "city": "Tokyo", "cafe_cat_1": "Community/Old-fashioned", "id_new": 333 }, "geometry": { "type": "Point", "coordinates": [ 139.7649404, 35.720447 ] } },
{ "type": "Feature", "properties": { "name": "Couzt Cafe", "type": "cafe", "city": "Tokyo", "cafe_cat_1": "Independent", "id_new": 334 }, "geometry": { "type": "Point", "coordinates": [ 139.765587399999987, 35.720653 ] } },
{ "type": "Feature", "properties": { "name": "やなか珈琲店", "type": "cafe", "city": "Tokyo", "cafe_cat_1": "Community/Old-fashioned", "id_new": 335 }, "geometry": { "type": "Point", "coordinates": [ 139.76476790000001, 35.7268789 ] } },
{ "type": "Feature", "properties": { "name": null, "type": "cafe", "city": "Tokyo", "cafe_cat_1": "Independent", "id_new": 336 }, "geometry": { "type": "Point", "coordinates": [ 139.7750057, 35.6960429 ] } },
{ "type": "Feature", "properties": { "name": "スターバックス", "type": "cafe", "city": "Tokyo", "cafe_cat_1": "Independent", "id_new": 337 }, "geometry": { "type": "Point", "coordinates": [ 139.667211, 35.6630487 ] } },
{ "type": "Feature", "properties": { "name": "たちばな書店蒲田店", "type": "cafe", "city": "Tokyo", "cafe_cat_1": "Independent", "id_new": 338 }, "geometry": { "type": "Point", "coordinates": [ 139.715729900000014, 35.5640336 ] } },
{ "type": "Feature", "properties": { "name": "イタリアントマト", "type": "cafe", "city": "Tokyo", "cafe_cat_1": "Independent", "id_new": 339 }, "geometry": { "type": "Point", "coordinates": [ 139.686303, 35.659449 ] } },
{ "type": "Feature", "properties": { "name": "まとい", "type": "cafe", "city": "Tokyo", "cafe_cat_1": "Independent", "id_new": 340 }, "geometry": { "type": "Point", "coordinates": [ 139.813897, 35.7173569 ] } },
{ "type": "Feature", "properties": { "name": "Cafe Hatopoppo", "type": "cafe", "city": "Tokyo", "cafe_cat_1": "Independent", "id_new": 341 }, "geometry": { "type": "Point", "coordinates": [ 139.743881, 35.690629 ] } },
{ "type": "Feature", "properties": { "name": "カフェ・ベローチェ", "type": "cafe", "city": "Tokyo", "cafe_cat_1": "Chain", "id_new": 342 }, "geometry": { "type": "Point", "coordinates": [ 139.7425804, 35.6874265 ] } },
{ "type": "Feature", "properties": { "name": "珈琲館", "type": "cafe", "city": "Tokyo", "cafe_cat_1": "Chain", "id_new": 343 }, "geometry": { "type": "Point", "coordinates": [ 139.742548699999986, 35.6876468 ] } },
{ "type": "Feature", "properties": { "name": "A&A認定ベクターワークスカフェジャパン", "type": "cafe", "city": "Tokyo", "cafe_cat_1": "Community/Old-fashioned", "id_new": 344 }, "geometry": { "type": "Point", "coordinates": [ 139.759867, 35.7010661 ] } },
{ "type": "Feature", "properties": { "name": "カフェ・ベローチェ", "type": "cafe", "city": "Tokyo", "cafe_cat_1": "Chain", "id_new": 345 }, "geometry": { "type": "Point", "coordinates": [ 139.7653106, 35.6695915 ] } },
{ "type": "Feature", "properties": { "name": "カフェ・ベローチェ", "type": "cafe", "city": "Tokyo", "cafe_cat_1": "Chain", "id_new": 346 }, "geometry": { "type": "Point", "coordinates": [ 139.710009899999989, 35.7526948 ] } },
{ "type": "Feature", "properties": { "name": "モリバコーヒー 板橋仲宿店", "type": "cafe", "city": "Tokyo", "cafe_cat_1": "Independent", "id_new": 347 }, "geometry": { "type": "Point", "coordinates": [ 139.7090461, 35.754993 ] } },
{ "type": "Feature", "properties": { "name": "スターバックス", "type": "cafe", "city": "Tokyo", "cafe_cat_1": "Independent", "id_new": 348 }, "geometry": { "type": "Point", "coordinates": [ 139.7618745, 35.7001644 ] } },
{ "type": "Feature", "properties": { "name": "こけし屋", "type": "cafe", "city": "Tokyo", "cafe_cat_1": "Independent", "id_new": 349 }, "geometry": { "type": "Point", "coordinates": [ 139.6005208, 35.7034111 ] } },
{ "type": "Feature", "properties": { "name": "Push Pull", "type": "cafe", "city": "Tokyo", "cafe_cat_1": "Independent", "id_new": 350 }, "geometry": { "type": "Point", "coordinates": [ 139.5891136, 35.6346264 ] } },
{ "type": "Feature", "properties": { "name": "Cafe FIRST", "type": "cafe", "city": "Tokyo", "cafe_cat_1": "Independent", "id_new": 351 }, "geometry": { "type": "Point", "coordinates": [ 139.743247200000013, 35.6597024 ] } },
{ "type": "Feature", "properties": { "name": "スターバックス", "type": "cafe", "city": "Tokyo", "cafe_cat_1": "Independent", "id_new": 352 }, "geometry": { "type": "Point", "coordinates": [ 139.781525, 35.6869316 ] } },
{ "type": "Feature", "properties": { "name": "ドトールコーヒーショップ", "type": "cafe", "city": "Tokyo", "cafe_cat_1": "Chain", "id_new": 353 }, "geometry": { "type": "Point", "coordinates": [ 139.778414, 35.687511 ] } },
{ "type": "Feature", "properties": { "name": "Ayers Rock", "type": "cafe", "city": "Tokyo", "cafe_cat_1": "Independent", "id_new": 354 }, "geometry": { "type": "Point", "coordinates": [ 139.458406599999989, 35.5948526 ] } },
{ "type": "Feature", "properties": { "name": "ノア", "type": "cafe", "city": "Tokyo", "cafe_cat_1": "Independent", "id_new": 355 }, "geometry": { "type": "Point", "coordinates": [ 139.5999287, 35.7324907 ] } },
{ "type": "Feature", "properties": { "name": "スターバックス", "type": "cafe", "city": "Tokyo", "cafe_cat_1": "Independent", "id_new": 356 }, "geometry": { "type": "Point", "coordinates": [ 139.74471650000001, 35.6630838 ] } },
{ "type": "Feature", "properties": { "name": "ドトールコーヒーショップ", "type": "cafe", "city": "Tokyo", "cafe_cat_1": "Chain", "id_new": 357 }, "geometry": { "type": "Point", "coordinates": [ 139.7462074, 35.6628262 ] } },
{ "type": "Feature", "properties": { "name": "カナルカフェ", "type": "cafe", "city": "Tokyo", "cafe_cat_1": "Community/Old-fashioned", "id_new": 358 }, "geometry": { "type": "Point", "coordinates": [ 139.7428114, 35.7002854 ] } },
{ "type": "Feature", "properties": { "name": "エクセルシオール カフェ", "type": "cafe", "city": "Tokyo", "cafe_cat_1": "Community/Old-fashioned", "id_new": 359 }, "geometry": { "type": "Point", "coordinates": [ 139.762351200000012, 35.6999854 ] } },
{ "type": "Feature", "properties": { "name": "ドトールコーヒーショップ", "type": "cafe", "city": "Tokyo", "cafe_cat_1": "Chain", "id_new": 360 }, "geometry": { "type": "Point", "coordinates": [ 139.7091404, 35.6466022 ] } },
{ "type": "Feature", "properties": { "name": "スターバックス", "type": "cafe", "city": "Tokyo", "cafe_cat_1": "Independent", "id_new": 361 }, "geometry": { "type": "Point", "coordinates": [ 139.7067806, 35.6670002 ] } },
{ "type": "Feature", "properties": { "name": "スプーンハウス", "type": "cafe", "city": "Tokyo", "cafe_cat_1": "Independent", "id_new": 362 }, "geometry": { "type": "Point", "coordinates": [ 139.6494595, 35.6671874 ] } },
{ "type": "Feature", "properties": { "name": "プロペラカフェ", "type": "cafe", "city": "Tokyo", "cafe_cat_1": "Community/Old-fashioned", "id_new": 363 }, "geometry": { "type": "Point", "coordinates": [ 139.530047700000011, 35.6696029 ] } },
{ "type": "Feature", "properties": { "name": "杏's cafe", "type": "cafe", "city": "Tokyo", "cafe_cat_1": "Independent", "id_new": 364 }, "geometry": { "type": "Point", "coordinates": [ 139.5139859, 35.7233858 ] } },
{ "type": "Feature", "properties": { "name": "カフェ・ベローチェ", "type": "cafe", "city": "Tokyo", "cafe_cat_1": "Chain", "id_new": 365 }, "geometry": { "type": "Point", "coordinates": [ 139.70439970000001, 35.655786 ] } },
{ "type": "Feature", "properties": { "name": "ドトールコーヒーショップ", "type": "cafe", "city": "Tokyo", "cafe_cat_1": "Chain", "id_new": 366 }, "geometry": { "type": "Point", "coordinates": [ 139.7045379, 35.6559902 ] } },
{ "type": "Feature", "properties": { "name": "カフェ・ド・クリエ", "type": "cafe", "city": "Tokyo", "cafe_cat_1": "Community/Old-fashioned", "id_new": 367 }, "geometry": { "type": "Point", "coordinates": [ 139.698089399999986, 35.6561014 ] } },
{ "type": "Feature", "properties": { "name": "ドトールコーヒーショップ", "type": "cafe", "city": "Tokyo", "cafe_cat_1": "Chain", "id_new": 368 }, "geometry": { "type": "Point", "coordinates": [ 139.5021712, 35.7412061 ] } },
{ "type": "Feature", "properties": { "name": null, "type": "cafe", "city": "Tokyo", "cafe_cat_1": "Independent", "id_new": 369 }, "geometry": { "type": "Point", "coordinates": [ 139.567422, 35.6545263 ] } },
{ "type": "Feature", "properties": { "name": "ドトールコーヒーショップ", "type": "cafe", "city": "Tokyo", "cafe_cat_1": "Chain", "id_new": 370 }, "geometry": { "type": "Point", "coordinates": [ 139.7440655, 35.6471207 ] } },
{ "type": "Feature", "properties": { "name": "ドトールコーヒーショップ", "type": "cafe", "city": "Tokyo", "cafe_cat_1": "Chain", "id_new": 371 }, "geometry": { "type": "Point", "coordinates": [ 139.6204189, 35.7579152 ] } },
{ "type": "Feature", "properties": { "name": "ルノアール", "type": "cafe", "city": "Tokyo", "cafe_cat_1": "Independent", "id_new": 372 }, "geometry": { "type": "Point", "coordinates": [ 139.5794323, 35.7023946 ] } },
{ "type": "Feature", "properties": { "name": "ドトールコーヒーショップ", "type": "cafe", "city": "Tokyo", "cafe_cat_1": "Chain", "id_new": 373 }, "geometry": { "type": "Point", "coordinates": [ 139.6975425, 35.6618449 ] } },
{ "type": "Feature", "properties": { "name": "ドトールコーヒーショップ", "type": "cafe", "city": "Tokyo", "cafe_cat_1": "Chain", "id_new": 374 }, "geometry": { "type": "Point", "coordinates": [ 139.7136788, 35.6616777 ] } },
{ "type": "Feature", "properties": { "name": "スターバックス", "type": "cafe", "city": "Tokyo", "cafe_cat_1": "Independent", "id_new": 375 }, "geometry": { "type": "Point", "coordinates": [ 139.714365500000014, 35.6613378 ] } },
{ "type": "Feature", "properties": { "name": "サンマルクカフェ", "type": "cafe", "city": "Tokyo", "cafe_cat_1": "Chain", "id_new": 376 }, "geometry": { "type": "Point", "coordinates": [ 139.5762953, 35.629303 ] } },
{ "type": "Feature", "properties": { "name": "撫愛荘", "type": "cafe", "city": "Tokyo", "cafe_cat_1": "Independent", "id_new": 377 }, "geometry": { "type": "Point", "coordinates": [ 139.7356845, 35.5765265 ] } },
{ "type": "Feature", "properties": { "name": "コロンボ (Colombo)", "type": "cafe", "city": "Tokyo", "cafe_cat_1": "Independent", "id_new": 378 }, "geometry": { "type": "Point", "coordinates": [ 139.6255903, 35.6588894 ] } },
{ "type": "Feature", "properties": { "name": "サンマルクカフェ", "type": "cafe", "city": "Tokyo", "cafe_cat_1": "Chain", "id_new": 379 }, "geometry": { "type": "Point", "coordinates": [ 139.578685900000011, 35.7046375 ] } },
{ "type": "Feature", "properties": { "name": "スターバックス", "type": "cafe", "city": "Tokyo", "cafe_cat_1": "Independent", "id_new": 380 }, "geometry": { "type": "Point", "coordinates": [ 139.599117, 35.6398866 ] } },
{ "type": "Feature", "properties": { "name": "ドトールコーヒーショップ", "type": "cafe", "city": "Tokyo", "cafe_cat_1": "Chain", "id_new": 381 }, "geometry": { "type": "Point", "coordinates": [ 139.6086627, 35.6425407 ] } },
{ "type": "Feature", "properties": { "name": "Pronto", "type": "cafe", "city": "Tokyo", "cafe_cat_1": "Independent", "id_new": 382 }, "geometry": { "type": "Point", "coordinates": [ 139.7369507, 35.7545489 ] } },
{ "type": "Feature", "properties": { "name": "BECK'S COFFEE SHOP", "type": "cafe", "city": "Tokyo", "cafe_cat_1": "Independent", "id_new": 383 }, "geometry": { "type": "Point", "coordinates": [ 139.737280700000014, 35.7536497 ] } },
{ "type": "Feature", "properties": { "name": "Dora", "type": "cafe", "city": "Tokyo", "cafe_cat_1": "Independent", "id_new": 384 }, "geometry": { "type": "Point", "coordinates": [ 139.682240299999989, 35.659264 ] } },
{ "type": "Feature", "properties": { "name": "Colorado", "type": "cafe", "city": "Tokyo", "cafe_cat_1": "Independent", "id_new": 385 }, "geometry": { "type": "Point", "coordinates": [ 139.6818815, 35.6593588 ] } },
{ "type": "Feature", "properties": { "name": "暖 (Dan)", "type": "cafe", "city": "Tokyo", "cafe_cat_1": "Independent", "id_new": 386 }, "geometry": { "type": "Point", "coordinates": [ 139.478670099999988, 35.5555517 ] } },
{ "type": "Feature", "properties": { "name": "カフェ・ベローチェ", "type": "cafe", "city": "Tokyo", "cafe_cat_1": "Chain", "id_new": 387 }, "geometry": { "type": "Point", "coordinates": [ 139.5771988, 35.7046623 ] } },
{ "type": "Feature", "properties": { "name": "ドトールコーヒーショップ", "type": "cafe", "city": "Tokyo", "cafe_cat_1": "Chain", "id_new": 388 }, "geometry": { "type": "Point", "coordinates": [ 139.600016900000014, 35.6880642 ] } },
{ "type": "Feature", "properties": { "name": "ルノアール", "type": "cafe", "city": "Tokyo", "cafe_cat_1": "Independent", "id_new": 389 }, "geometry": { "type": "Point", "coordinates": [ 139.7451955, 35.6992167 ] } },
{ "type": "Feature", "properties": { "name": "ドトールコーヒーショップ", "type": "cafe", "city": "Tokyo", "cafe_cat_1": "Chain", "id_new": 390 }, "geometry": { "type": "Point", "coordinates": [ 139.7449293, 35.6993645 ] } },
{ "type": "Feature", "properties": { "name": "憩", "type": "cafe", "city": "Tokyo", "cafe_cat_1": "Independent", "id_new": 391 }, "geometry": { "type": "Point", "coordinates": [ 139.7353711, 35.6525278 ] } },
{ "type": "Feature", "properties": { "name": "Cafe Kariz", "type": "cafe", "city": "Tokyo", "cafe_cat_1": "Independent", "id_new": 392 }, "geometry": { "type": "Point", "coordinates": [ 139.7334443, 35.6523828 ] } },
{ "type": "Feature", "properties": { "name": "ドトールコーヒーショップ", "type": "cafe", "city": "Tokyo", "cafe_cat_1": "Chain", "id_new": 393 }, "geometry": { "type": "Point", "coordinates": [ 139.7744753, 35.7064225 ] } },
{ "type": "Feature", "properties": { "name": "石橋亭", "type": "cafe", "city": "Tokyo", "cafe_cat_1": "Independent", "id_new": 394 }, "geometry": { "type": "Point", "coordinates": [ 139.615811799999989, 35.7077954 ] } },
{ "type": "Feature", "properties": { "name": "エクセルシオール カフェ", "type": "cafe", "city": "Tokyo", "cafe_cat_1": "Community/Old-fashioned", "id_new": 395 }, "geometry": { "type": "Point", "coordinates": [ 139.66815840000001, 35.6078539 ] } },
{ "type": "Feature", "properties": { "name": "スターバックス", "type": "cafe", "city": "Tokyo", "cafe_cat_1": "Independent", "id_new": 396 }, "geometry": { "type": "Point", "coordinates": [ 139.669221599999986, 35.6078873 ] } },
{ "type": "Feature", "properties": { "name": "モリバコーヒー", "type": "cafe", "city": "Tokyo", "cafe_cat_1": "Independent", "id_new": 397 }, "geometry": { "type": "Point", "coordinates": [ 139.6699428, 35.6079285 ] } },
{ "type": "Feature", "properties": { "name": "伯爵", "type": "cafe", "city": "Tokyo", "cafe_cat_1": "Independent", "id_new": 398 }, "geometry": { "type": "Point", "coordinates": [ 139.711104799999987, 35.7316815 ] } },
{ "type": "Feature", "properties": { "name": "小昼 (Kobilu)", "type": "cafe", "city": "Tokyo", "cafe_cat_1": "Independent", "id_new": 399 }, "geometry": { "type": "Point", "coordinates": [ 139.5899891, 35.6568792 ] } },
{ "type": "Feature", "properties": { "name": "スターバックス", "type": "cafe", "city": "Tokyo", "cafe_cat_1": "Independent", "id_new": 400 }, "geometry": { "type": "Point", "coordinates": [ 139.7377658, 35.7541737 ] } },
{ "type": "Feature", "properties": { "name": "veloce cV", "type": "cafe", "city": "Tokyo", "cafe_cat_1": "Independent", "id_new": 401 }, "geometry": { "type": "Point", "coordinates": [ 139.7393725, 35.7018039 ] } },
{ "type": "Feature", "properties": { "name": "ドトールコーヒーショップ", "type": "cafe", "city": "Tokyo", "cafe_cat_1": "Chain", "id_new": 402 }, "geometry": { "type": "Point", "coordinates": [ 139.621150300000011, 35.7037266 ] } },
{ "type": "Feature", "properties": { "name": "ドトールコーヒーショップ", "type": "cafe", "city": "Tokyo", "cafe_cat_1": "Chain", "id_new": 403 }, "geometry": { "type": "Point", "coordinates": [ 139.6000467, 35.7029836 ] } },
{ "type": "Feature", "properties": { "name": "タリーズコーヒー", "type": "cafe", "city": "Tokyo", "cafe_cat_1": "Chain", "id_new": 404 }, "geometry": { "type": "Point", "coordinates": [ 139.7086246, 35.706005 ] } },
{ "type": "Feature", "properties": { "name": "Cafe CottonClub", "type": "cafe", "city": "Tokyo", "cafe_cat_1": "Independent", "id_new": 405 }, "geometry": { "type": "Point", "coordinates": [ 139.7069442, 35.7121467 ] } },
{ "type": "Feature", "properties": { "name": "ドトールコーヒーショップ", "type": "cafe", "city": "Tokyo", "cafe_cat_1": "Chain", "id_new": 406 }, "geometry": { "type": "Point", "coordinates": [ 139.7071239, 35.7120694 ] } },
{ "type": "Feature", "properties": { "name": "スターバックス", "type": "cafe", "city": "Tokyo", "cafe_cat_1": "Independent", "id_new": 407 }, "geometry": { "type": "Point", "coordinates": [ 139.706783300000012, 35.7122578 ] } },
{ "type": "Feature", "properties": { "name": "サンマルクカフェ", "type": "cafe", "city": "Tokyo", "cafe_cat_1": "Chain", "id_new": 408 }, "geometry": { "type": "Point", "coordinates": [ 139.7055535, 35.7128654 ] } },
{ "type": "Feature", "properties": { "name": "まんがの時間", "type": "cafe", "city": "Tokyo", "cafe_cat_1": "Independent", "id_new": 409 }, "geometry": { "type": "Point", "coordinates": [ 139.7054341, 35.712836 ] } },
{ "type": "Feature", "properties": { "name": "銀座コージーコーナー", "type": "cafe", "city": "Tokyo", "cafe_cat_1": "Independent", "id_new": 410 }, "geometry": { "type": "Point", "coordinates": [ 139.7051176, 35.7130973 ] } },
{ "type": "Feature", "properties": { "name": "エクセルシオール カフェ", "type": "cafe", "city": "Tokyo", "cafe_cat_1": "Community/Old-fashioned", "id_new": 411 }, "geometry": { "type": "Point", "coordinates": [ 139.704494, 35.7127598 ] } },
{ "type": "Feature", "properties": { "name": "Délifrance", "type": "cafe", "city": "Tokyo", "cafe_cat_1": "Independent", "id_new": 412 }, "geometry": { "type": "Point", "coordinates": [ 139.7123995, 35.6648344 ] } },
{ "type": "Feature", "properties": { "name": "スターバックス", "type": "cafe", "city": "Tokyo", "cafe_cat_1": "Independent", "id_new": 413 }, "geometry": { "type": "Point", "coordinates": [ 139.628808600000013, 35.7588523 ] } },
{ "type": "Feature", "properties": { "name": "ドトールコーヒーショップ", "type": "cafe", "city": "Tokyo", "cafe_cat_1": "Chain", "id_new": 414 }, "geometry": { "type": "Point", "coordinates": [ 139.741071, 35.6687972 ] } },
{ "type": "Feature", "properties": { "name": "ドトールコーヒーショップ", "type": "cafe", "city": "Tokyo", "cafe_cat_1": "Chain", "id_new": 415 }, "geometry": { "type": "Point", "coordinates": [ 139.743000599999988, 35.6102069 ] } },
{ "type": "Feature", "properties": { "name": "ドトールコーヒーショップ", "type": "cafe", "city": "Tokyo", "cafe_cat_1": "Chain", "id_new": 416 }, "geometry": { "type": "Point", "coordinates": [ 139.7666098, 35.7026017 ] } },
{ "type": "Feature", "properties": { "name": "珈琲BELL", "type": "cafe", "city": "Tokyo", "cafe_cat_1": "Community/Old-fashioned", "id_new": 417 }, "geometry": { "type": "Point", "coordinates": [ 139.674549, 35.6924718 ] } },
{ "type": "Feature", "properties": { "name": "カフェ マスターズ", "type": "cafe", "city": "Tokyo", "cafe_cat_1": "Community/Old-fashioned", "id_new": 418 }, "geometry": { "type": "Point", "coordinates": [ 139.7846391, 35.6834053 ] } },
{ "type": "Feature", "properties": { "name": "シェルブール", "type": "cafe", "city": "Tokyo", "cafe_cat_1": "Independent", "id_new": 419 }, "geometry": { "type": "Point", "coordinates": [ 139.7851858, 35.6827825 ] } },
{ "type": "Feature", "properties": { "name": "ツナグカフェ", "type": "cafe", "city": "Tokyo", "cafe_cat_1": "Community/Old-fashioned", "id_new": 420 }, "geometry": { "type": "Point", "coordinates": [ 139.7428428, 35.6602818 ] } },
{ "type": "Feature", "properties": { "name": "Le Pain Quotidien", "type": "cafe", "city": "Tokyo", "cafe_cat_1": "Independent", "id_new": 421 }, "geometry": { "type": "Point", "coordinates": [ 139.7501546, 35.6582115 ] } },
{ "type": "Feature", "properties": { "name": "エクセルシオール カフェ", "type": "cafe", "city": "Tokyo", "cafe_cat_1": "Community/Old-fashioned", "id_new": 422 }, "geometry": { "type": "Point", "coordinates": [ 139.7461783, 35.6467756 ] } },
{ "type": "Feature", "properties": { "name": "ブロンディ", "type": "cafe", "city": "Tokyo", "cafe_cat_1": "Independent", "id_new": 423 }, "geometry": { "type": "Point", "coordinates": [ 139.7927508, 35.7137823 ] } },
{ "type": "Feature", "properties": { "name": "喫茶とみ一", "type": "cafe", "city": "Tokyo", "cafe_cat_1": "Community/Old-fashioned", "id_new": 424 }, "geometry": { "type": "Point", "coordinates": [ 139.7876566, 35.7184982 ] } },
{ "type": "Feature", "properties": { "name": null, "type": "cafe", "city": "Tokyo", "cafe_cat_1": "Independent", "id_new": 425 }, "geometry": { "type": "Point", "coordinates": [ 139.7944191, 35.7128567 ] } },
{ "type": "Feature", "properties": { "name": "金龍茶屋", "type": "cafe", "city": "Tokyo", "cafe_cat_1": "Independent", "id_new": 426 }, "geometry": { "type": "Point", "coordinates": [ 139.7948563, 35.7127958 ] } },
{ "type": "Feature", "properties": { "name": "キレット", "type": "cafe", "city": "Tokyo", "cafe_cat_1": "Independent", "id_new": 427 }, "geometry": { "type": "Point", "coordinates": [ 139.7964014, 35.7127759 ] } },
{ "type": "Feature", "properties": { "name": "喫茶ブラザー", "type": "cafe", "city": "Tokyo", "cafe_cat_1": "Community/Old-fashioned", "id_new": 428 }, "geometry": { "type": "Point", "coordinates": [ 139.792903, 35.7152975 ] } },
{ "type": "Feature", "properties": { "name": "ミルクホール", "type": "cafe", "city": "Tokyo", "cafe_cat_1": "Independent", "id_new": 429 }, "geometry": { "type": "Point", "coordinates": [ 139.76267390000001, 35.7214131 ] } },
{ "type": "Feature", "properties": { "name": "カフェ・ド・クリエ", "type": "cafe", "city": "Tokyo", "cafe_cat_1": "Community/Old-fashioned", "id_new": 430 }, "geometry": { "type": "Point", "coordinates": [ 139.7412278, 35.6701691 ] } },
{ "type": "Feature", "properties": { "name": "Sacra Cafe", "type": "cafe", "city": "Tokyo", "cafe_cat_1": "Independent", "id_new": 431 }, "geometry": { "type": "Point", "coordinates": [ 139.7986192, 35.6792756 ] } },
{ "type": "Feature", "properties": { "name": "エクセルシオール カフェ", "type": "cafe", "city": "Tokyo", "cafe_cat_1": "Community/Old-fashioned", "id_new": 432 }, "geometry": { "type": "Point", "coordinates": [ 139.7372059, 35.6733843 ] } },
{ "type": "Feature", "properties": { "name": "ドトールコーヒーショップ", "type": "cafe", "city": "Tokyo", "cafe_cat_1": "Chain", "id_new": 433 }, "geometry": { "type": "Point", "coordinates": [ 139.7009038, 35.6939279 ] } },
{ "type": "Feature", "properties": { "name": "TAK CAFE", "type": "cafe", "city": "Tokyo", "cafe_cat_1": "Independent", "id_new": 434 }, "geometry": { "type": "Point", "coordinates": [ 139.7026171, 35.7011575 ] } },
{ "type": "Feature", "properties": { "name": "サンマルクカフェ", "type": "cafe", "city": "Tokyo", "cafe_cat_1": "Chain", "id_new": 435 }, "geometry": { "type": "Point", "coordinates": [ 139.7673145, 35.6727334 ] } },
{ "type": "Feature", "properties": { "name": "ドトールコーヒーショップ", "type": "cafe", "city": "Tokyo", "cafe_cat_1": "Chain", "id_new": 436 }, "geometry": { "type": "Point", "coordinates": [ 139.767244, 35.6727804 ] } },
{ "type": "Feature", "properties": { "name": "ufotable cafe", "type": "cafe", "city": "Tokyo", "cafe_cat_1": "Independent", "id_new": 437 }, "geometry": { "type": "Point", "coordinates": [ 139.654919799999988, 35.7096177 ] } },
{ "type": "Feature", "properties": { "name": "Lanai", "type": "cafe", "city": "Tokyo", "cafe_cat_1": "Independent", "id_new": 438 }, "geometry": { "type": "Point", "coordinates": [ 139.4999278, 35.6069594 ] } },
{ "type": "Feature", "properties": { "name": "ドトールコーヒーショップ", "type": "cafe", "city": "Tokyo", "cafe_cat_1": "Chain", "id_new": 439 }, "geometry": { "type": "Point", "coordinates": [ 139.711713800000012, 35.6097065 ] } },
{ "type": "Feature", "properties": { "name": "万惣", "type": "cafe", "city": "Tokyo", "cafe_cat_1": "Independent", "id_new": 440 }, "geometry": { "type": "Point", "coordinates": [ 139.7706442, 35.6955056 ] } },
{ "type": "Feature", "properties": { "name": "カフェ・ベローチェ", "type": "cafe", "city": "Tokyo", "cafe_cat_1": "Chain", "id_new": 441 }, "geometry": { "type": "Point", "coordinates": [ 139.768848100000014, 35.6955922 ] } },
{ "type": "Feature", "properties": { "name": "ドトールコーヒーショップ", "type": "cafe", "city": "Tokyo", "cafe_cat_1": "Chain", "id_new": 442 }, "geometry": { "type": "Point", "coordinates": [ 139.796169600000013, 35.6553878 ] } },
{ "type": "Feature", "properties": { "name": "スターバックス", "type": "cafe", "city": "Tokyo", "cafe_cat_1": "Independent", "id_new": 443 }, "geometry": { "type": "Point", "coordinates": [ 139.7964141, 35.6556337 ] } },
{ "type": "Feature", "properties": { "name": "Pronto", "type": "cafe", "city": "Tokyo", "cafe_cat_1": "Independent", "id_new": 444 }, "geometry": { "type": "Point", "coordinates": [ 139.7963653, 35.6553241 ] } },
{ "type": "Feature", "properties": { "name": "Segafredo", "type": "cafe", "city": "Tokyo", "cafe_cat_1": "Independent", "id_new": 445 }, "geometry": { "type": "Point", "coordinates": [ 139.6991475, 35.6440736 ] } },
{ "type": "Feature", "properties": { "name": "Olu olu cafe", "type": "cafe", "city": "Tokyo", "cafe_cat_1": "Independent", "id_new": 446 }, "geometry": { "type": "Point", "coordinates": [ 139.6796809, 35.6443368 ] } },
{ "type": "Feature", "properties": { "name": "スターバックス", "type": "cafe", "city": "Tokyo", "cafe_cat_1": "Independent", "id_new": 447 }, "geometry": { "type": "Point", "coordinates": [ 139.7052337, 35.6587425 ] } },
{ "type": "Feature", "properties": { "name": "ドトールコーヒーショップ", "type": "cafe", "city": "Tokyo", "cafe_cat_1": "Chain", "id_new": 448 }, "geometry": { "type": "Point", "coordinates": [ 139.6803712, 35.5748339 ] } },
{ "type": "Feature", "properties": { "name": "ダ・ノンナ", "type": "cafe", "city": "Tokyo", "cafe_cat_1": "Independent", "id_new": 449 }, "geometry": { "type": "Point", "coordinates": [ 139.6142403, 35.6355405 ] } },
{ "type": "Feature", "properties": { "name": "スターバックス", "type": "cafe", "city": "Tokyo", "cafe_cat_1": "Independent", "id_new": 450 }, "geometry": { "type": "Point", "coordinates": [ 139.7118669, 35.7279407 ] } },
{ "type": "Feature", "properties": { "name": "モリバコーヒー", "type": "cafe", "city": "Tokyo", "cafe_cat_1": "Independent", "id_new": 451 }, "geometry": { "type": "Point", "coordinates": [ 139.7093577, 35.7330679 ] } },
{ "type": "Feature", "properties": { "name": "エクセルシオール カフェ", "type": "cafe", "city": "Tokyo", "cafe_cat_1": "Community/Old-fashioned", "id_new": 452 }, "geometry": { "type": "Point", "coordinates": [ 139.5801449, 35.7042454 ] } },
{ "type": "Feature", "properties": { "name": "タリーズコーヒー", "type": "cafe", "city": "Tokyo", "cafe_cat_1": "Chain", "id_new": 453 }, "geometry": { "type": "Point", "coordinates": [ 139.7656139, 35.6686995 ] } },
{ "type": "Feature", "properties": { "name": "スターバックス", "type": "cafe", "city": "Tokyo", "cafe_cat_1": "Independent", "id_new": 454 }, "geometry": { "type": "Point", "coordinates": [ 139.766590799999989, 35.6716935 ] } },
{ "type": "Feature", "properties": { "name": "トリコロール本店", "type": "cafe", "city": "Tokyo", "cafe_cat_1": "Independent", "id_new": 455 }, "geometry": { "type": "Point", "coordinates": [ 139.765019700000011, 35.6702592 ] } },
{ "type": "Feature", "properties": { "name": "ドトールコーヒーショップ", "type": "cafe", "city": "Tokyo", "cafe_cat_1": "Chain", "id_new": 456 }, "geometry": { "type": "Point", "coordinates": [ 139.7695215, 35.6754844 ] } },
{ "type": "Feature", "properties": { "name": "23番地カフェ", "type": "cafe", "city": "Tokyo", "cafe_cat_1": "Community/Old-fashioned", "id_new": 457 }, "geometry": { "type": "Point", "coordinates": [ 139.8005757, 35.7094705 ] } },
{ "type": "Feature", "properties": { "name": "came cafe", "type": "cafe", "city": "Tokyo", "cafe_cat_1": "Independent", "id_new": 458 }, "geometry": { "type": "Point", "coordinates": [ 139.7988497, 35.7001758 ] } },
{ "type": "Feature", "properties": { "name": "茶房", "type": "cafe", "city": "Tokyo", "cafe_cat_1": "Independent", "id_new": 459 },